stop_id,stop_name,stop_type,stop_other,stop_coord
abas,"Aba-Sárkeresztúr",állomás,"",
absz,"Abádszalók",állomás,"Pusztataskony-Abádszalók",47.455329:20.553206
abaf,"Abafalva",(Felvidék/Szlovákia),"Abovce",
abal,"Abaliget",állomás,"",46.152726:18.075268
abap,"Abapuszta",megszűnt megállóhely,"",
abuj,"Abaújkér",megállóhely,"",48.308885:21.197991
abus,"Abaújszántó",állomás,"",48.286545:21.18124
abuf,"Abaújszántói-fürdő",megállóhely,"",48.268706:21.179562
absi,"Abaújszina",(Felvidék/Szlovákia),"Seňa",
abda,"Abda",megállóhely,"",47.690741:17.540713
abny,"Abony",állomás,"",47.173179:20.01606
abnu,"Abonyi út",megállóhely,"",47.206564:20.125062
abrh,"Ábrahámhegy",megállóhely,"",46.814926:17.572038
acs_,"Ács",állomás,"",47.716966:18.00468
acsa,"Acsa-Erdőkürt",állomás,"",
acsd,"Acsád",állomás,"",47.308357:16.734674
adcs,"Adács",megállóhely,"",47.696687:19.9756
adnd,"Ádánd",állomás,"",46.854071:18.141355
adny,"Adony",állomás,"",47.106162:18.84789
adpu,"Adorjánpuszta",megszűnt megállóhely,"",
agrd,"Agárd",megállóhely,"",47.198221:18.606208
agrt,"Agárdytelep",megszűnt megállóhely,"",46.819363:19.385623
ageh,"Ágasegyháza",megszűnt állomás,"",46.844254:19.456327
aget,"Ágasegyházi tanyák",megszűnt megállóhely,"",46.836996:19.418272
ager,"Ágerdőmajor",megszűnt megállóhely,"",
agfa,"Ágfalva",megszűnt megállóhely,"",
agol,"Ágostonlak",(Felvidék/Szlovákia),"Závadka nad Hronom obec",
wago,"Ágostonpuszta",megszűnt kisvasúti megállóhely,"",
agyb,"Agyagbánya",megszűnt megállóhely,"",
ajak,"Ajak",,"",48.185516:22.046444
ajka,"Ajka",állomás,"",47.105953:17.573045
ajgy,"Ajka-Gyártelep",megállóhely,"",
ajna,"Ajnácskő",(Felvidék/Szlovákia),"Hajnáčka",
waks,"Akasztó",megszűnt kisvasúti,"",
algm,"Alagimajor",megállóhely,"",47.601815:19.153961
alap,"Alap",megállóhely,"",46.83204:18.657401
alba,"Albár",(Felvidék/Szlovákia),"Dolný Bar",
bufo,"Albertfalva",állomás,"Budafok délivasút, Budafok-Albertfalva",47.439378:19.034792
albe,"Albertirsa",állomás,"Alberti-Irsa",47.239999:19.606813
alcs,"Alcsút-Felcsút",megszűnt állomás,"",47.441593:18.588469
alde,"Aldebrő",megszűnt megállóhely,"",
algy,"Algyő",állomás,"",46.335497:20.195954
alib,"Alibánfa",megszűnt megállóhely,"",
alpu,"Állampuszta",megszűnt állomás,"",46.71793:19.059067
almm,"Almamellék",megszűnt állomás,"",46.16784:17.888977
alma,"Almamellék alsó",megszűnt megállóhely,"Almamellék megálló",
almr,"Almár",megállóhely,"Felnémet-Bányatelep",47.954923:20.357738
alms,"Almás",megállóhely,"",
alfu,"Almásfüzitő",állomás,"",47.725301:18.262004
alff,"Almásfüzitő felső",állomás,"",47.731329:18.217001
almk,"Almáskert",megszűnt megállóhely,"Királyság, Eperjes",
alom,"Álomzúg",megszűnt megállóhely,"",
abel,"Alsóbélatelep",megállóhely,"Fonyódszéplak",46.724246:17.516343
wabi,"Alsóbikol",megszűnt kisvasúti,"",
wabo,"Alsóbogát",megszűnt kisvasúti állomás,"",
abol,"Alsóboldva",megállóhely,"Sajósenye",48.21261:20.792204
aerd,"Alsóerdő",megszűnt megállóhely,"",
agal,"Alsógalla",megállóhely,"Tatabánya",47.563365:18.424538
agye,"Alsógyenes",megállóhely,"",46.765945:17.276639
agod,"Alsógöd",megállóhely,"Göd alsó",47.677952:19.134706
ajat,"Alsójattó",(Felvidék/Szlovákia),"Jatov",
waka,"Alsókara",megszűnt kisvasúti megállóhely,"Terjéki rakodó",
akoc,"Alsókocskóc",(Felvidék/Szlovákia),"Dolné Kočkovce",
akro,"Alsóköröskény",(Felvidék/Szlovákia),"Dolné Krškany",
alas,"Alsólászló",megszűnt (Ausztria),"Unterloisdorf",
alov,"Alsólövő",megállóhely (Ausztria),"Unterschützen",
amaj,"Alsómajsa",megszűnt állomás,"",
amen,"Alsóméntelek",megállóhely,"",46.961639:19.579009
amih,"Alsómihályfalva",(Horvátország),"Donji Mihaljevec",
anem,"Alsónemesapáti",megállóhely,"",
anes,"Alsóneszte",(Felvidék/Szlovákia),"Dolné Naštice",
anye,"Alsónyék",megállóhely,"",
aptf,"Alsópéterfa",(Ausztria),"Unterpetersdorf",
apuy,"Alsópulya",állomás (Ausztria),"Unterpullendorf",
ware,"Alsóregmec",megszűnt kisvasúti megállóhely,"",
aron,"Alsórönök",megállóhely,"",
asaf,"Alsósajó",megállóhely (Felvidék/Szlovákia),"Nižná Slaná obec",48.724701:20.417552
aseg,"Alsósegesd",megszűnt megállóhely,"Segesd",46.33646:17.335774
asom,"Alsósomlyó",megszűnt megállóhely,"",
asec,"Alsószecse",(Felvidék/Szlovákia),"Dolná Seč",
asik,"Alsósziklás",(Felvidék/Szlovákia),"Nižný Skálnik",
asil,"Alsószil-Felsőlóc",(Felvidék/Szlovákia),"Brestovany",
ater,"Alsóterény",megszűnt (Felvidék/Szlovákia),"Terany",
aurr,"Alsóúrrét",megállóhely,"",46.898542:19.779728
wava,"Alsóvadács",megszűnt kisvasúti állomás,"",
avar,"Alsóvárad",(Felvidék/Szlovákia),"Tekovský Hrádok",
aorh,"Alsóöreghegy",megszűnt,"",
aors,"Alsóörs",állomás,"",46.985213:17.975907
ambr,"Ambrózfalva",megállóhely,"",46.35305:20.740582
anar,"Anarcs",megszűnt megállóhely,"",
andc,"Andocs",megállóhely,"Nagytoldipuszta-Andocs",46.647335:17.892196
wand,"Andókút",kisvasúti megállóhely,"",
annk,"Andornaktálya",megállóhely,"Andornaktálya felső",47.852351:20.40216
anda,"Andornaktálya alsó",megszűnt megállóhely,"",
andh,"Andráshida",állomás,"",
anhi,"Andráshida régi",megszűnt állomás,"",46.85609:16.787472
buan,"Angyalföld",állomás,"Budapest-Magdolnaváros, Budapest-Angyalföld",47.549681:19.089783
angs,"Angyalsziget",,"",
want,"Angyaltelek",megszűnt kisvasúti megállóhely,"",
annv,"Annavölgyibánya-Sárisáp",megszűnt állomás,"",
anta,"Antalszállás",megszűnt megállóhely,"",
apaf,"Apafa",állomás,"",47.584035:21.655774
apag,"Apagy",állomás,"",47.95385:21.939064
apat,"Apátfalva",állomás,"",46.175165:20.580553
apap,"Apátipuszta",megszűnt (Felvidék/Szlovákia),"Husiná",
apav,"Apavára",megszűnt megállóhely,"",
apcz,"Apc-Zagyvaszántó",állomás,"",47.791281:19.668141
apor,"Áporka",megszűnt megállóhely,"",
apos,"Apostag",megszűnt állomás,"",46.88642:18.977749
aqun,"Aquincum",megállóhely,"",47.56811:19.048536
aqui,"Aquincum felső",megállóhely,"Aquincum MÁV mh.",47.565979:19.049875
aque,"Aquincum-elágazás",szolgálati hely,"",47.560604:19.046629
arad,"Arad",állomás (Románia/Erdély),"",
ardp,"Aradványpuszta",állomás,"",47.662858:21.842713
waju,"Arany János u.",megszűnt kisvasúti,"",
arap,"Aranyosapáti",állomás,"Kopócsapáti",
aram,"Aranyosmarót",(Felvidék/Szlovákia),"Zlaté Moravce",
arah,"Aranyosmarót megálló",megszűnt (Felvidék/Szlovákia),"",
aran,"Aranyospuszta",megszűnt,"",
arki,"Árkipuszta",megszűnt megállóhely,"",
arpi,"Árpád híd",megállóhely,"",47.539701:19.047171
waru,"Árpád utca",megszűnt kisvasúti megállóhely,"",
arpf,"Árpádföld",,"",
arph,"Árpádhalom",megszűnt állomás,"",
arpa,"Árpádszállás",megállóhely,"",46.866469:19.989458
wart,"Árpádtelep",megszűnt kisvasúti állomás,"",
arta,"Ártánd",megszűnt állomás,"Ártánd 39. sz. őrház",
wash,"Ásotthalom",megszűnt kisvasúti állomás,"",
wasf,"Ásotthalom felső",megszűnt kisvasúti megállóhely,"",
assa,"Assakürt",(Felvidék/Szlovákia),"Nové Sady",
wasv,"Ásványbányarakodó",megszűnt kisvasúti állomás,"",
aszl,"Aszaló",megállóhely,"",48.220147:20.961916
aszr,"Ászár",megállóhely,"",47.518217:18.006543
aszk,"Ászár-Keményítőgyár",megállóhely,"",47.537147:18.01978
aszd,"Aszód",állomás,"",47.647775:19.492439
aszf,"Aszófő",állomás,"Aszófő-Tihany",46.925446:17.832485
ata_,"Áta",állomás,"",45.935805:18.307325
atka,"Atkár",megszűnt állomás,"",
atta,"Attala",megállóhely,"",46.368661:18.067455
wata,"Attala GV",megszűnt kisvasúti megállóhely,"",
watt,"Attilapuszta",megszűnt kisvasúti megállóhely,"",
autg,"Autógyár főbejárat",megszűnt megállóhely,"",
babi,"",megszűnt (Felvidék/Szlovákia),"",
wbab,"Babó I.",megszűnt kisvasúti,"",
wbao,"Babó II.",megszűnt kisvasúti,"",
babo,"Babócsa",állomás,"",46.028391:17.342501
wbbo,"Bábolna",megszűnt kisvasúti megállóhely,"",
wbam,"Babómajor",megszűnt kisvasúti megállóhely,"",
babm,"Bábonymegyer",állomás,"Nagybábony-Koppánymegyer",46.746135:18.110089
bcsa,"Bácsalmás",állomás,"",
bcgy,"Bácsalmási gyümölcsös",megszűnt megállóhely,"",
bcst,"Bácsalmási tanyák",megszűnt megállóhely,"",
bcvo,"Bácsalmási vöröserdő",megszűnt megállóhely,"",
bcsb,"Bácsbokod-Bácsborsód",állomás,"",46.115662:19.160073
bbot,"Bácsborsódi tanyák",megszűnt megállóhely,"",
bada,"Badacsony",megállóhely,"",46.788464:17.506479
badl,"Badacsonylábdihegy",megállóhely,"",46.790672:17.474122
badt,"Badacsonytomaj",állomás,"",46.804643:17.518167
bads,"Badacsonytördemic-Szigliget",állomás,"Nemestördemic-Szigliget, Nemestördemic",46.809844:17.468998
bado,"Badacsonyörs",megállóhely,"Kisörsszőlőhegy, Kisörsiszőllőhegy",46.806484:17.529896
bag_,"Bag",megállóhely,"",47.641183:19.471777
bagh,"Bagimajor",megállóhely,"Baghymajor",47.060256:20.315698
bago,"Bagod",megállóhely,"Bagodvitenyéd, Alsóbagod",46.874975:16.746015
bagy,"Bágyogszovát",megállóhely,"Dör-Bágyog, Bágyog",
baho,"Báhony",(Felvidék/Szlovákia),"Báhoň",
baja,"Baja",állomás,"",46.187196:18.957293
bajl,"Baja szállásváros",megszűnt megállóhely,"",46.163055:18.965888
bajd,"Baja-Dunafürdő",megállóhely,"Dunapart",
bajp,"Baja-Dunapart",teherpályaudvar,"",
wbau,"Bajai műút",megszűnt kisvasúti megállóhely,"",
bajs,"Bajai szőlők",megállóhely,"",
base,"Bajánsenye",megállóhely,"Dávidháza, Dávidháza-Kotormány",46.818098:16.358094
bajc,"Bajcs",állomás (Felvidék/Szlovákia),"Bajč",
bajf,"Bajcsa forgalmi kitérő",szolgálati hely,"",
bajo,"Bajonta",megszűnt megállóhely,"",
bajt,"Bajti-elágazás",megszűnt,"",47.25799:16.976963
bak_,"Bak",állomás,"",46.732014:16.849202
bkba,"Bakonybánk",megszűnt állomás,"",47.471607:17.913831
bkgy,"Bakonygyirót",megállóhely,"Gyiróth",47.41611:17.811788
wbkk,"Bakonykoppány",megszűnt kisvasúti,"",
bkpe,"Bakonypéterd",megállóhely,"",47.474062:17.804966
bksa,"Bakonysárkány",állomás,"",47.443936:18.103187
bkla,"Bakonyszentlászló",állomás,"",47.396032:17.817652
bklb,"Bakonyszentlászló-Bauxitátrakó",teherpályaudvar,"",
bkso,"Bakonyszombathely",megszűnt megállóhely,"",47.479805:17.950158
bkta,"Bakonytamási",megszűnt megállóhely,"",47.414328:17.723303
bakl,"Baktalórántháza",állomás,"",47.988572:22.083416
bkto,"Baktó",megszűnt megállóhely,"",
bakt,"Baktüttös",megállóhely,"",46.690741:16.824717
bala,"Balassagyarmat",állomás,"",48.071269:19.293517
bsty,"Balástya",állomás,"",46.413475:20.001532
wblt,"Baláta-tó",kisvasúti megállóhely,"",
blak,"Balatonakali-Dörgicse",állomás,"Dörgicse-Akali",46.879785:17.748063
blat,"Balatonakarattya",megállóhely,"",47.017395:18.16779
blal,"Balatonaliga",állomás,"",46.984325:18.170759
blam,"Balatonalmádi",állomás,"Balatonalmádi fürdő",47.028322:18.015047
blao,"Balatonalmádi-Öreghegy",megszűnt állomás,"",47.028814:18.00808
blae,"Balatonalmádi-Remetevölgy",megszűnt,"",47.034921:18.004111
blar,"Balatonarács",megállóhely,"",46.962529:17.89754
blbe,"Balatonberény",megállóhely,"",46.713759:17.317227
blbo,"Balatonboglár",állomás,"",46.776072:17.647244
blbf,"Balatonboglár felső",megszűnt megállóhely,"",
bled,"Balatonederics",állomás,"",46.8026:17.384489
blfe,"Balatonfenyves",állomás,"",46.71359:17.482627
blfa,"Balatonfenyves alsó",megállóhely,"Balatonmáriafürdő felső",46.70829:17.453839
blfy,"Balatonfenyves felső",megszűnt megállóhely,"",
wbfe,"Balatonfenyves GV",kisvasúti,"",46.712464:17.479485
blfk,"Balatonfőkajár",megszűnt megállóhely,"",47.013243:18.203897
blff,"Balatonfőkajár felső",megállóhely,"",47.031169:18.214249
blfz,"Balatonfűzfő",állomás,"",47.059869:18.0426
blfu,"Balatonfüred",állomás,"",46.956095:17.883093
blfo,"Balatonföldvár",megállóhely,"",46.853282:17.879889
blgy,"Balatongyörök",megállóhely,"",46.751969:17.354215
blkn,"Balatonkenese",állomás,"",47.032512:18.105496
blku,"Balatonkenese-Üdülőtelep",megállóhely,"Balatonkenesei főv. üdülőhely",47.025303:18.137509
blkr,"Balatonkeresztúr",megszűnt állomás,"",46.703817:17.368715
blle,"Balatonlelle",megállóhely,"",46.787547:17.694536
bllf,"Balatonlelle felső",állomás,"",46.794722:17.720107
blmf,"Balatonmáriafürdő",állomás,"",46.704209:17.375256
blma,"Balatonmáriafürdő alsó",megállóhely,"",46.704927:17.434852
blre,"Balatonrendes",megállóhely,"Rendes",46.825498:17.584078
blso,"Balatonszárszó",állomás,"",46.832081:17.830358
blse,"Balatonszemes",állomás,"",46.811914:17.776509
blsg,"Balatonszentgyörgy",állomás,"",46.692617:17.288851
blsm,"Balatonszentmihály",megszűnt megállóhely,"",
blsp,"Balatonszepezd",megállóhely,"",46.851171:17.663288
viri,"Balatonszepezd felső",megszűnt megállóhely,"Víriusztelep",
blsa,"Balatonszéplak alsó",megállóhely,"",46.891859:17.993291
blsf,"Balatonszéplak felső",megállóhely,"",46.897946:18.018029
blud,"Balatonudvari",megállóhely,"",46.904613:17.807706
bluj,"Balatonújlak",megszűnt megállóhely,"",46.675207:17.397544
blvi,"Balatonvilágos",megállóhely,"",46.963854:18.157558
balf,"Balffürdő",megállóhely,"",
bali,"Balinka",megszűnt állomás,"",47.31868:18.149242
wblk,"Balkán",megszűnt kisvasúti megállóhely,"",
balk,"Balkány",megszűnt állomás,"",
bald,"Balladűlő",megszűnt megállóhely,"",
ball,"Ballószög",megszűnt megállóhely,"",46.857483:19.57149
balm,"Balmazújváros",állomás,"",41.613872:21.347965
balg,"Balogfalva",(Felvidék/Szlovákia),"Blhovce",
wbgt,"Balogh tanya",megszűnt kisvasúti,"",
balo,"Balotaszállás",állomás,"Göböljárás",46.349329:19.533122
wbal,"Balsa",megszűnt kisvasúti,"",48.17098:21.550027
wbat,"Balsa-Tiszapart",megszűnt kisvasúti,"",
balv,"Bálványszállás",(Felvidék/Szlovákia),"Balvany",
banw,"Bán",(Felvidék/Szlovákia),"Bánovce nad Bebravou",
wbnf,"Bánfa",megszűnt kisvasúti,"",
bhha,"Bánhalma-Halastó",állomás,"",
bhid,"Bánhida",megállóhely,"Tatabányai erőmű, Bánhida-Erőmű",47.573837:18.371953
bhma,"Bánhidymajor",megszűnt megállóhely,"Bánhidi major",
bank,"Bánk",megszűnt állomás,"",
bnke,"Bánkeszi",megállóhely (Felvidék/Szlovákia),"Bánov",
bkut,"Bánkút",megállóhely,"",46.505444:21.093878
wbnk,"Bánokszentgyörgyi elágazás",kisvasúti megállóhely,"",46.54771:16.733025
banr,"Bánréve",állomás,"",48.299847:20.351973
banv,"Bánrévei Vízmű",megállóhely,"Sajó-parti fürdő",
bnru,"Bánruszkóc",(Felvidék/Szlovákia),"Ruskovce",
bans,"",(Felvidék/Szlovákia),"",
wbac,"Barackos",megszűnt megállóhely,"",
wbrs,"Barackos mh.",kisvasúti megállóhely,"",
brck,"Baracska",megállóhely,"",47.298402:18.754856
brnd,"Báránd",állomás,"",
barh,"Barantóhegy",megszűnt (Románia/Erdély),"",
brsi,"Baranyaszentistván",megszűnt megállóhely (Horvátország),"",
pelm,"Baranyavár-Pélmonostor",állomás (Horvátország),"Beli Manastir",
wbar,"Bárányfok",kisvasúti,"",46.34465:18.790857
wbrr,"Barátréti romok",megszűnt kisvasúti állomás,"",
wbrt,"Barátság",kisvasúti,"",47.615558:16.689429
brsa,"Barátszabadi",(Felvidék/Szlovákia),"Mníchova Lehota",
barm,"Barátudvar megálló",megállóhely (Ausztria),"Mönchhof-Haltestelle",
bara,"Barátudvar-Féltorony",(Ausztria),"Mönchhof-Halbturm",
brca,"Bárca",állomás (Felvidék/Szlovákia),"Barca",
brcl,"Bárca alsó",megszűnt (Felvidék/Szlovákia),"",
barc,"Barcs",állomás,"",45.951819:17.446885
barf,"Barcs felső",megállóhely,"Belcsapuszta",45.958309:17.486156
bart,"Barcstelep",megszűnt megálló-rakodóhely,"",
bard,"Bárdudvarnok",megszűnt megállóhely,"Bárdibükk",
wbra,"Barosakna",megszűnt kisvasúti állomás,"",
bars,"Barosstelep",megállóhely,"",47.398759:18.989168
bber,"Barsberzencze",(Felvidék/Szlovákia),"Tekovská Breznica",
bbes,"Barsbese-Barsbaracska",(Felvidék/Szlovákia),"Beša",
btas,"Barstaszár",(Felvidék/Szlovákia),"Tesárske Mlyňany",
brta,"Barta",megszűnt megállóhely,"",
brto,"Bartos",(Felvidék/Szlovákia),"Bartošova Lehôtka",
bash,"Bashalom",megállóhely,"",
bata,"Báta",megszűnt állomás,"",46.139741:18.718041
bats,"Bátaszék",állomás,"",46.202455:18.71561
bate,"Baté",állomás,"",46.355608:17.960903
batm,"Bátmonostor",megszűnt állomás,"",
bath,"Batthyány tér",állomás,"",47.506732:19.039413
batt,"Battonya",állomás,"",46.282001:21.004002
wbtt,"Battonya GV",megszűnt kisvasúti állomás,"",46.279274:21.005016
batn,"Battyánd",(Szlovénia),"Puconci",
baty,"Batyk-kitérő",megszűnt állomás,"",46.988724:17.023992
wbza,"Bázakerettye alsó",kisvasúti állomás,"",
wbfz,"Bázakerettye felső",kisvasúti megállóhely,"",
bazi,"Bazin",állomás (Felvidék/Szlovákia),"Pezinok",
bazs,"Bazsómajor",megszűnt megállóhely,"",
bece,"Becehegy",megállóhely,"",46.776066:17.372625
beck,"Becske",megszűnt állomás,"",47.895875:19.367151
becs,"Becske alsó",megállóhely,"",
becu,"Bécsújhely",állomás (Ausztria),"Wiener Neustadt",
wbed,"Bede megálló",megszűnt kisvasúti megállóhely,"",
bekm,"Békásmegyer",állomás,"Békásmegyer-Pünkösdfürdő",47.598467:19.054871
beke,"Békés",megszűnt állomás,"",
wbko,"Békés Köröspart",megszűnt kisvasúti megállóhely,"",
wbks,"Békés Széchenyi tér",megszűnt kisvasúti állomás,"",
bkcs,"Békéscsaba",állomás,"",46.669743:21.081495
wbck,"Békéscsaba Kossuth tér",megszűnt kisvasúti állomás,"",
wbcs,"Békéscsaba Sztálin úti kitérő",megszűnt kisvasúti megállóhely,"",
wbcv,"Békéscsaba villanytelep",megszűnt kisvasúti megállóhely,"",
wbkt,"Békési tanyák",megszűnt kisvasúti megállóhely,"",
wbek,"Békéssámson",megszűnt kisvasúti állomás,"",
blba,"Bélabánya",(Felvidék/Szlovákia),"Banská Belá",
blbm,"Bélabánya megálló",megszűnt (Felvidék/Szlovákia),"",
belh,"Bélaház",(Felvidék/Szlovákia),"Boleráz",
belf,"Bélapátfalva",állomás,"",48.055869:20.340643
belc,"Bélapátfalvi Cementgyár",megállóhely,"",48.058409:20.355583
wbet,"Bélatanya",megszűnt megállóhely,"",
belt,"Bélatelep",megállóhely,"",46.736844:17.534137
belv,"Bélavár",megállóhely,"",46.122928:17.207832
blcs,"Belecska",megállóhely,"",46.639598:18.411317
beld,"Beled",állomás,"",
belg,"Beleg",állomás,"",
wblm,"Belemtűz",megszűnt kisvasúti,"",
belz,"Belezna",megállóhely,"",46.326327:16.87752
bell,"Bellus",(Felvidék/Szlovákia),"Beluša",
wbem,"Bélmegyer",megszűnt kisvasúti állomás,"",
wbmt,"Bélmegyeri tanyák",megszűnt kisvasúti megállóhely,"",
wbeu,"Belső Újtelep",megszűnt kisvasúti megállóhely,"",
beba,"Belsőbáránd",megállóhely,"",
beka,"Belsőkamaráspuszta",megállóhely,"",46.341294:20.848509
benr,"Belsőnyír",megszűnt megállóhely,"Kuti erdő",
bepe,"Belsőperegpuszta",megállóhely,"",46.320285:20.906699
bena,"Béna",megállóhely (Felvidék/Szlovákia),"Belina",
bene,"Benedekvölgy",megszűnt megállóhely,"",
bens,"Benesháza",(Felvidék/Szlovákia),"Beňuš",
beng,"Benge",megszűnt megállóhely (Horvátország),"",
beny,"Bény",(Felvidék/Szlovákia),"Bíňa",
bent,"Bénytelep",(Felvidék/Szlovákia),"Bíňa zastávka",
berc,"Bercsény",(Felvidék/Szlovákia),"Svinná",
berg,"Béreg",megszűnt állomás (Szerbia),"",
berf,"Berekfürdő",megállóhely,"Tatárülés",
brkh,"Berekhát",megszűnt megállóhely,"",
bere,"Beremend",megszűnt állomás,"",45.77608:18.444456
brmf,"Beremend felső",megszűnt megállóhely,"Rácbóly",
berm,"Beremendi Cementmű",megszűnt állomás,"",45.832221:18.395398
brnt,"Berente",megállóhely,"",48.238896:20.672466
brns,"Berente-Rendező",megszűnt teherpályaudvar,"Berente Szénpályaudvar",
beru,"Berettyóújfalu",állomás,"",47.212248:21.532232
bert,"Beretvástelep",megszűnt megállóhely,"",
brzo,"Berezó",állomás (Felvidék/Szlovákia),"Brezová pod Bradlom",
berh,"Berhida",megszűnt megállóhely,"",
berk,"Berkenye",megállóhely,"",47.885529:19.071312
wbvg,"Berva gyártelep",megszűnt kisvasúti,"",
wbvk,"Berva kőbánya",megszűnt kisvasúti állomás,"",
berz,"Berzence",állomás,"",46.201187:17.143537
wbes,"Besnyő",megszűnt kisvasúti megállóhely,"",
besu,"Besnyői út",megszűnt megállóhely,"",
besb,"Besztercebánya",állomás (Felvidék/Szlovákia),"Banská Bystrica",
besm,"Besztercebánya megálló",megszűnt megállóhely (Felvidék/Szlovákia),"",
besj,"Besztercebánya Szentjános",megszűnt (Felvidék/Szlovákia),"",
betc,"Betekintscsárda",(Felvidék/Szlovákia),"Slepčany",
betl,"Betlér",állomás (Felvidék/Szlovákia),"Betliar",48.699227:20.500608
bezd,"Bezdán",megszűnt állomás (Szerbia),"",
beze,"Bezenye",megállóhely,"",47.97355:17.203314
wbez,"Bezinarét",kisvasúti,"",
beot,"Beöthy utca",,"",
biat,"Biatorbágy",állomás,"",47.480494:18.834032
biar,"Biatorbágy régi",megszűnt állomás,"Torbágy",
boce,"Bicere",állomás,"",46.659809:21.179498
bicf,"Bicscsefalu",(Felvidék/Szlovákia),"Bytčica",
bcsd,"Bicsérd",állomás,"Kisbicsérd",46.041042:18.053953
bics,"Bicske",állomás,"",47.484084:18.61875
bica,"Bicske alsó",megállóhely,"",47.486712:18.643327
bihk,"Biharkeresztes",állomás,"Mező-Keresztes",47.135506:21.721866
bihn,"Biharnagybajom",állomás,"",47.208761:21.221784
bihp,"Biharpüspöki",állomás (Románia/Erdély),"Episcopia Bihor",
biha,"Biharszentandrás",megszűnt (Románia/Erdély),"",
bika,"Bikács",megszűnt megállóhely,"",
bikz,"Bikás",(Felvidék/Szlovákia),"Bujakovo zastávka",
bino,"",(Felvidék/Szlovákia),"",
biri,"Biri",megszűnt állomás,"",
wbir,"Bíró megálló",megszűnt kisvasúti megállóhely,"",
bize,"Bize",megszűnt megállóhely,"Gyótapuszta",
bo__,"Bő",megszűnt állomás,"",
boba,"Boba",állomás,"",47.182534:17.191406
bocf,"Bocfölde",megállóhely,"",46.778259:16.853404
bocs,"Bocskaikert",megállóhely,"Bocskay-kert",47.640262:21.666037
bodj,"Bodajk",állomás,"",47.31814:18.251807
bdjf,"Bodajk felső",megszűnt megállóhely,"",47.328888:18.235506
bodf,"Bodakajtor-Felsőszentiván",megszűnt állomás,"",
bodb,"Bodolyabér",megállóhely,"Egyházbér",46.199985:18.128934
wbof,"Bodorfa",megszűnt kisvasúti,"",
wboh,"Bodroghalász",megszűnt kisvasúti megállóhely,"",
bodk,"Bodrogkeresztúr",állomás,"",48.175278:21.353901
bodo,"Bodrogolaszi",megállóhely,"",48.285443:21.512116
bodv,"Bódvaszilas",állomás,"",48.537491:20.737933
bodm,"Bódvaszilas-Mészkőbánya",megszűnt teherpályaudvar,"",
bofa,"Bőfalu",(Felvidék/Szlovákia),"Behynce",
boga,"Bogárzó",megállóhely,"",46.540624:20.677259
selc,"Bogdány-Selpőc",(Felvidék/Szlovákia),"Šelpice",
bogd,"Bogdása",megszűnt megállóhely,"",
bogo,"Bogoszló",(Felvidék/Szlovákia),"Trenčianske Bohuslavice",
bogy,"Bogya-Felsőgellér",(Felvidék/Szlovákia),"Bodza",
boja,"Bojár-Hollós",megszűnt állomás,"",47.396786:21.209544
wboj,"Bojsza",kisvasúti megállóhely,"",
wbjt,"Bojtártelek",megszűnt kisvasúti megállóhely,"",
boka,"Bókaháza",megszűnt megállóhely,"",46.771121:17.111519
boko,"Bokod",megszűnt megállóhely,"",
kavb,"Boldog",megszűnt megállóhely,"",
bdas,"Boldogasszony",(Ausztria),"Frauenkirchen",
bolk,"Boldogkőváralja",megállóhely,"",48.344982:21.20874
bolv,"Boldva",állomás,"",48.223171:20.790591
bole,"Bolesó",megszűnt (Felvidék/Szlovákia),"Bolešov",
wbol,"Bolhacsárda",megszűnt kisvasúti,"",
bolh,"Bolhás",megállóhely,"",
boly,"Bóly",állomás,"Német-Bóly, Németbóly",45.937634:18.538342
bony,"Bonnya",megállóhely,"",46.609116:17.910747
bonu,"Bonum",megszűnt megállóhely,"",
bonh,"Bonyhád",megszűnt állomás,"",46.295663:18.533394
bora,"Boráros tér",állomás,"",47.479171:19.066512
brci,"",megszűnt (Felvidék/Szlovákia),"",
bord,"Borodnó",(Felvidék/Szlovákia),"Brodno",
wbor,"Borosgyán",megszűnt kisvasúti állomás,"",
brga,"Borosznó-Garamszentandrás",(Felvidék/Szlovákia),"Brusno kúpele",
brs_,"Bors",megszűnt megállóhely,"",
borh,"Borsihalom",megállóhely,"",46.769864:19.91286
borm,"Borsmonostor",megszűnt (Ausztria),"Klostermarienberg",
borc,"Borsodi Ércmű",teherpályaudvar,"Borsodi Ércelőkészítőmű",48.157123:20.776055
bors,"Borsodszirák",megállóhely,"",48.258741:20.771014
borb,"Borsosberény",állomás,"",47.973256:19.094736
bosa,"Bősárkány",állomás,"",
bosf,"Bőszénfa",megszűnt megállóhely,"",
boty,"Botykapeterd",megszűnt megállóhely,"",
bozo,"Bozók",megszűnt (Felvidék/Szlovákia),"Bzovík",
brnc,"",(Felvidék/Szlovákia),"",
brau,"",(Felvidék/Szlovákia),"",
pzuj,"",állomás (Felvidék/Szlovákia),"",48.171017:17.148201
brav,"",(Felvidék/Szlovákia),"",
bren,"Brennbergbánya",megszűnt teherpályaudvar,"",
brzi,"",megszűnt (Felvidék/Szlovákia),"",
breh,"",(Felvidék/Szlovákia),"",
brer,"",(Felvidék/Szlovákia),"",
breb,"Breznóbánya",(Felvidék/Szlovákia),"Brezno",
brek,"Breznóbánya külváros",(Felvidék/Szlovákia),"Brezno mesto",
brez,"",megállóhely (Felvidék/Szlovákia),"",
bruk,"Bruck-Királyhida",állomás (Ausztria),"Bruck/Leitha",
brun,"Brunóc",(Felvidék/Szlovákia),"Brunovce",
buca,"Bucsány",megszűnt (Felvidék/Szlovákia),"",
bucu,"Bucsu",megszűnt megállóhely,"",47.248456:16.497542
bucs,"Búcsúszentlászló",állomás,"",46.792337:16.932724
bufa,"Budafa",megállóhely,"",46.851583:16.62501
bufb,"Budafok",megállóhely,"Budafok délivasút mh., Budafok-Belváros",47.424089:19.041604
wbuh,"Budahomok",megszűnt kisvasúti megállóhely,"",
buut,"Budai út",megállóhely,"",47.208424:19.732378
buks,"Budakalász",állomás,"",47.616203:19.054875
budl,"Budakalász lenfonó",megállóhely,"",47.621708:19.046807
bpdt,"Budapest Dunaparti Teherpályaudvar",megszűnt állomás,"",
bude,"Budapest-Déli",állomás,"",47.500269:19.024677
budp,"Budapest-Dunapart külső",megszűnt teherpályaudvar,"",
gubr,"Budapest-Ferencváros Gubacsi rendező",teherpályaudvar,"",
bufk,"Budapest-Ferencváros Keleti rendező pu.",teherpályaudvar,"",
bufm,"Budapest-Ferencváros Marhavásártér",megszűnt teherpályaudvar,"",
bufn,"Budapest-Ferencváros Nyugati rendező pu.",teherpályaudvar,"",
bujo,"Budapest-Józsefváros",megszűnt állomás,"",47.490728:19.090408
bukl,"Budapest-Keleti",állomás,"Budapest központi pályaudvar",47.500332:19.082716
buki,"Budapest-Kikötő",teherpályaudvar,"",
bunv,"Budapest-Nagyvásártelep",megszűnt teherpályaudvar,"",
buny,"Budapest-Nyugati",állomás,"",47.510278:19.056625
bpsh,"Budapest-Sashalom",megszűnt megállóhely,"",47.510697:19.154634
buse,"Budapest-Sertésvásártér",megszűnt teherpályaudvar,"",
busr,"Budapest-Soroksári út rendező",teherpályaudvar,"",
buvt,"Budapest-Városszéli telep",megszűnt megállóhely,"",47.486025:19.209652
bviz,"Budapest-Vizafogó",megszűnt állomás,"",47.532222:19.062799
buta,"Budatava",megszűnt megállóhely,"Vörösberény-Budatava",
bute,"Budatétény",megállóhely,"",47.405106:19.016441
buor,"Budaörs",állomás,"",47.447628:18.96645
wbug,"Bugac",megszűnt kisvasúti állomás,"",46.684386:19.677088
wbuf,"Bugac felső",megszűnt kisvasúti állomás,"",46.661004:19.659223
wbup,"Bugacpuszta",megszűnt kisvasúti megállóhely,"",46.700985:19.642137
wbuj,"Buj",megszűnt kisvasúti,"",
wbuk,"Buj község",megszűnt kisvasúti megállóhely,"",
bukv,"",(Felvidék/Szlovákia),"",
brmi,"Búrszentmiklós",(Felvidék/Szlovákia),"Borský Mikuláš",
buss,"Bušince",megszűnt (Felvidék/Szlovákia),"",
budo,"Büdöskútpuszta",megállóhely,"",48.374079:20.725597
buk_,"Bük",állomás,"",47.388626:16.752152
buku,"Bük fürdőtelep",megszűnt megállóhely,"",
buka,"Bükkábrány",teherpályaudvar,"",
bukk,"Bükkösd",állomás,"",46.113045:17.999445
bzov,"",megszűnt (Felvidék/Szlovákia),"",
boho,"Böhönye",megszűnt állomás,"",46.409754:17.406676
boke,"Bökény",megszűnt megállóhely,"",
bolc,"Bölcske",megszűnt megállóhely,"",46.729639:18.926542
borg,"Börgönd",állomás,"",47.140054:18.515118
borp,"Börgöndpuszta",megállóhely,"",
borv,"Börvely",megszűnt (Románia/Erdély),"",
wbrg,"Börzsönygyöngye",megszűnt kisvasúti,"",
wbrl,"Börzsönyliget",kisvasúti megállóhely,"",47.843964:19.016147
bosz,"Bösztör",állomás,"Homokszentlőrinc",
cece,"Cece",állomás,"",
cegl,"Cegléd",állomás,"",47.182277:19.8069
wceg,"Cegléd KCK",megszűnt kisvasúti állomás,"",
wceb,"Cegléd-Béke tér",megszűnt kisvasúti megállóhely,"",
wcev,"Cegléd-Vigadó",megszűnt kisvasúti megállóhely,"",
cegb,"Ceglédbercel",megállóhely,"",47.216291:19.657681
cegc,"Ceglédbercel-Cserő",állomás,"",47.210838:19.686085
wcei,"Ceglédi kiserdők",megszűnt kisvasúti megállóhely,"",
wcek,"Ceglédi közkórház",megszűnt kisvasúti megállóhely,"",
cegs,"Ceglédi szállások",megállóhely,"",47.168367:19.826395
cell,"Celldömölk",állomás,"",47.261238:17.152736
celr,"Celldömölk-Rendező",teherpályaudvar,"",47.248186:17.16965
cent,"Center",megszűnt állomás,"",48.253101:20.345538
cena,"Center alsó",megállóhely,"",48.262343:20.356823
cero,"",(Felvidék/Szlovákia),"",
cher,"Chernelházadamonya",megszűnt megállóhely,"",
wchi,"Chinoin",kisvasúti,"",48.116548:20.650351
chra,"",(Felvidék/Szlovákia),"",
chva,"",(Felvidék/Szlovákia),"",
ciba,"Cibak",megszűnt megállóhely,"",
cife,"Cifer",(Felvidék/Szlovákia),"Cífer",
wcig,"Cigánd",megszűnt kisvasúti állomás,"",
ciko,"Cikó",megállóhely,"",46.263462:18.557368
cink,"Cinkota",állomás,"",
cina,"Cinkota alsó",,"",
wcin,"Cinkus",megszűnt kisvasúti megállóhely,"",
cobo,"Cobolyfalu",(Felvidék/Szlovákia),"Soblahov",
wcaa,"Csaba alsó",megszűnt kisvasúti megállóhely,"",
csac,"Csabacsűd",állomás,"",46.822977:20.66324
csaf,"Csabacsűd felső",megállóhely,"Csabacsűd községháza",46.829229:20.649284
wcat,"Csabai tanyák",megszűnt kisvasúti állomás,"",
wcas,"Csabaszabadi",megszűnt kisvasúti állomás,"Szalay kitérő",
csab,"Csabony",megszűnt megállóhely,"",
caca,"Csáca",(Felvidék/Szlovákia),"Čadca",
cack,"Csáca község",(Felvidék/Szlovákia),"Čadca obec",
wcho,"Csaholc",megszűnt kisvasúti állomás,"",
csjg,"Csajág",állomás,"",47.033766:18.186184
csjf,"Csajág felső",megszűnt megállóhely,"Csajág-Újpuszta",47.043458:18.179359
csaj,"Csajta",megszűnt állomás (Ausztria),"Schachendorf",47.26257:16.430096
csak,"Csákánydoroszló",állomás,"",
csto,"Csáktornya",állomás (Horvátország),"Čakovec",
cakb,"Csáktornya laktanya",(Horvátország),"Čakovec-Buzovec",
csal,"Csala",megszűnt megállóhely,"",47.233345:18.489471
ckar,"Csallóközaranyos",(Felvidék/Szlovákia),"Zlatná na Ostrove",
wcap,"Csanádapáca",megszűnt kisvasúti állomás,"",
csap,"Csanádpalota",állomás,"",46.235984:20.732567
csng,"Csánig",megállóhely,"",
wcsn,"Csanyik-Erdei iskola",kisvasúti,"",48.123749:20.649062
csny,"Csányoszró",megszűnt állomás,"",
cspa,"Csap",állomás (Ukrajna),"Csop, &#1063;&#1086;&#1087;",
cspo,"Csapod",megszűnt állomás,"",47.510873:16.915448
csar,"Csárdaszállás",állomás,"Köröstarcsai tanyák",46.862308:20.930047
wcsa,"Csarnapuszta",kisvasúti megállóhely,"",48.008656:18.891633
cssr,"Császár",megszűnt megállóhely,"",47.508538:18.149423
cssz,"Császárszállás",megszűnt állomás,"",
cata,"Csata",állomás (Felvidék/Szlovákia),"Čata",
csat,"Csátalja",megszűnt állomás,"",
cstm,"Csatárimajor",megszűnt,"",
csav,"Csáva",állomás (Ausztria),"Stoob",
csec,"Csécs",(Felvidék/Szlovákia),"Čečejovce",
wcgr,"Cseger elágazás",megszűnt kisvasúti állomás,"",
cehb,"Csehberek",(Felvidék/Szlovákia),"České Brezovo",
csej,"Csejte-Vágszentkereszt",megszűnt (Felvidék/Szlovákia),"",
cskj,"Csekej",(Felvidék/Szlovákia),"Čakajovce",
cskl,"Cseklész",(Felvidék/Szlovákia),"Bernolákovo",
cems,"Csém",megszűnt megállóhely (Ausztria),"Schandorf",47.243144:16.425724
csmk,"Csemetekert",megszűnt megállóhely,"Fábiánsebestyéni csemetekert, Svábmajor",
csmo,"Csemő",megszűnt állomás,"",
fjar,"Csemő felsőjárás",megszűnt megállóhely,"Felsőjárás",
csek,"Csempeszkopács",megszűnt,"",
csem,"Csémpuszta",megállóhely,"",47.704444:18.106338
csgl,"Csengele",állomás,"",46.538347:19.908969
csgr,"Csenger",állomás,"",47.82625:22.666529
csgd,"Csengőd",állomás,"",
csep,"Csépa",állomás,"",46.812454:20.134959
cspl,"Csepel",állomás,"",47.421744:19.066304
cspy,"Csepel-Gyártelep",megszűnt teherpályaudvar,"",
cspg,"Csepreg",megszűnt állomás,"",
cser,"Cserdi-Helesfa",megállóhely,"",46.085506:17.987435
wcee,"Csereerdő",kisvasúti,"",
cere,"Cserencsény",(Felvidék/Szlovákia),"Čerenčany",
csnf,"Cserénfa",megszűnt,"",
csrp,"Cserepes",megszűnt megállóhely,"",
wcse,"Cserepes GV",megszűnt kisvasúti állomás,"",
wcet,"Cserepesi tanyák",megszűnt kisvasúti megállóhely,"",
wcep,"Cserepespuszta",megszűnt kisvasúti állomás,"",
wcst,"Cseres-táró",megszűnt kisvasúti megállóhely,"Bolvárybánya, Cserestáró",
csrh,"Cserhát",megszűnt állomás,"",
wcsk,"Cserkő",kisvasúti,"",47.838712:19.931076
wcma,"Csermajor",megszűnt kisvasúti,"",
cern,"Cserne",(Felvidék/Szlovákia),"Čierne pri Čadci",
csrt,"Csertő",megszűnt megállóhely,"",
cetn,"Csetnek",(Felvidék/Szlovákia),"Štítnik",
cetv,"Csetnek-város",(Felvidék/Szlovákia),"Štítnik mesto",
csib,"Csibrák",megállóhely,"",46.466243:18.335559
cskr,"Csikéria",megszűnt állomás,"",
cskt,"Csikéria kitérő",megszűnt állomás (Szerbia),"",
csks,"Csikériai szőlők",megszűnt megállóhely,"",
wcic,"Csiki csárda",megszűnt kisvasúti megállóhely,"",
csik,"Csikóstőttős",megállóhely,"",
cslh,"Csillaghegy",megállóhely,"",47.585764:19.044734
csta,"Csillagtanya",megszűnt megállóhely,"",
wcsl,"Csillebérc",kisvasúti állomás,"Úttörőváros",47.498101:18.961692
csin,"Csincse",megállóhely,"Csincsetanya",47.890797:20.763906
wcsi,"Csisztagyógyfürdő",kisvasúti,"",
cizf,"Csízfürdő",(Felvidék/Szlovákia),"Číz-kúpele",
csob,"Csobád",megállóhely,"",
cskk,"Csókakő",megállóhely,"",47.329939:18.237649
csvi,"Csokonyavisonta",megszűnt állomás,"Erdőcsokonya",
csva,"Csokonyavisonta alsó",megszűnt megállóhely,"Erdőcsokonyai alsó megálló",
cskv,"Csokvaomány",megszűnt megállóhely,"Nekézseny-Sáta",48.165467:20.39826
csrs,"Csoma-Szabadi",állomás,"Attala-Csoma",46.366552:18.045027
csom,"Csomád",állomás,"",47.635584:19.22289
comt,"Csomatelke",(Felvidék/Szlovákia),"Čamovce",
csmr,"Csomorkány",megszűnt megállóhely,"",
cson,"Csongrád",állomás,"",46.704418:20.140379
csga,"Csongrád alsó",megállóhely,"",46.711414:20.12778
csgu,"Csongrádi úti tanyák",megállóhely,"Kunszállás",46.690207:19.922862
csop,"Csopak",,"Csopak-Balatonkövesd",46.974545:17.931168
csor,"Csór-Nádasdladány",állomás,"",47.173967:18.220485
wcoa,"Csorba alsó",megszűnt kisvasúti,"",
wcof,"Csorba felső",megszűnt kisvasúti,"",
wcob,"Csorba fmsz. bolt",megszűnt kisvasúti,"",
csrn,"Csorna",állomás,"",47.602058:17.24931
csrv,"Csorvás",állomás,"",46.623509:20.840883
csra,"Csorvás alsó",megállóhely,"Telekgerendás",46.63522:20.889689
wcos,"Csősz",megszűnt kisvasúti állomás,"",
wcov,"Csóványos",megszűnt kisvasúti állomás,"",
csug,"Csugar",állomás,"Csugarparti tanyák",47.050295:20.54139
cscs,"Csurgaszi csárda",megszűnt megállóhely,"",46.876796:16.724685
csgo,"Csurgó",állomás,"",46.261181:17.091602
csuz,"Csúza",megszűnt megállóhely (Horvátország),"",
csut,"Csütörtök",megállóhely (Felvidék/Szlovákia),"Miloslavov",
wcom,"Csömödér ÁEV",kisvasúti,"",46.606673:16.641668
csmd,"Csömödér-Páka",állomás,"",46.607827:16.641843
wcmt,"Csömödéri-tó",kisvasúti,"",
cmor,"Csömör",állomás,"",
csrg,"Csörög",megállóhely,"",47.735969:19.196349
csro,"Csörögi szőlők",megszűnt megállóhely,"",
wcug,"Cukorgyár",megszűnt kisvasúti megállóhely,"",
daba,"Dabas",állomás,"Alsódabas",47.194736:19.329077
dabr,"Dabronc",megállóhely,"",47.025849:17.166939
dad_,"Dad",megszűnt megállóhely,"",47.523133:18.227894
dalm,"Dalmand",megszűnt állomás,"Kocsola-Ódalmand, Ódalmand",46.490681:18.197404
wdam,"Dámóc",megszűnt kisvasúti,"",
wdan,"Danitanya",megszűnt kisvasúti állomás,"",
drny,"Darány",állomás,"",45.992187:17.598578
drnp,"Daránypuszta",megállóhely,"",46.766716:18.146942
dard,"Dárda",állomás (Horvátország),"Darda",
daru,"Darufalva",megállóhely (Ausztria),"Draßburg",
davo,"Dávod",megszűnt állomás,"",
deak,"Deáki",(Felvidék/Szlovákia),"Diakovce",
debr,"Debrecen",állomás,"",47.520203:21.628526
debc,"Debrecen-Csapókert",megállóhely,"",47.540477:21.647921
wdbf,"Debrecen-Fatelep",kisvasúti,"",
debv,"Debrecen-Kertváros",megszűnt megállóhely,"",
debk,"Debrecen-Kondoros",megállóhely,"",47.525166:21.713647
debs,"Debrecen-Szabadságtelep",megállóhely,"Debrecen-Nyilastelep",47.52766:21.658709
debt,"Debrecen-Tégláskert",megszűnt megállóhely,"",
dbvs,"Debrecen-Vásártér",megszűnt állomás,"",
dbro,"Debrőd",megszűnt (Felvidék/Szlovákia),"Debraď",
decs,"Decs",állomás,"",
deck,"Décskelecsény",(Felvidék/Szlovákia),"Kľačany",
dedi,"",(Felvidék/Szlovákia),"",
wdeg,"Dég",megszűnt kisvasúti állomás,"",
dejt,"Dejtár",állomás,"",
dele,"Délegyháza",állomás,"",47.253581:19.060786
delb,"Délegyháza-Újbánya",teherpályaudvar,"",
delu,"Déli út",megszűnt megállóhely,"",
wdll,"Déllő",megszűnt kisvasúti megállóhely,"",
deme,"Demecser",állomás,"",48.111633:21.926905
wden,"Dencsháza",megszűnt kisvasúti,"",
dene,"Dénesfa",megállóhely,"",
wdnm,"Dénesmajor",megszűnt kisvasúti állomás,"",
wdep,"Depónia",megszűnt kisvasúti,"",
dere,"Derecske",állomás,"",47.364033:21.583308
derv,"Derecske-Vásártér",megállóhely,"",47.351569:21.581032
wder,"Dértanya",kisvasúti,"",
desz,"Deszk",megállóhely,"",46.209996:20.246409
detc,"Detrekőcsütörtök",(Felvidék/Szlovákia),"Plavecký Štvrtok",
detm,"Detrekőszentmiklós",állomás (Felvidék/Szlovákia),"Plavecký Mikulaš",
detv,"Detrekőváralja",(Felvidék/Szlovákia),"Plavecké Podhradie",
deva,"Dévaványa",állomás,"",47.034252:20.94368
deve,"Devecser",állomás,"",47.112299:17.435728
devt,"Dévénytó",(Felvidék/Szlovákia),"Devínske Jazero",
devu,"Dévényújfalu",állomás (Felvidék/Szlovákia),"Devínska Nová Ves",
devi,"Devicse",megszűnt (Felvidék/Szlovákia),"Devičie",
dinm,"Dinnyés",megállóhely,"",
diog,"Diósgyőr",teherpályaudvar,"",
wdio,"Diósgyőr LÁEV",kisvasúti megállóhely,"",48.103521:20.694001
wmaj,"Diósgyőr-Majláth",kisvasúti megállóhely,"",48.10992:20.672437
wdiv,"Diósgyőr-Városközpont",kisvasúti,"",
diov,"Diósgyőr-Vasgyár",teherpályaudvar,"",48.091258:20.750681
dios,"Diósjenő",állomás,"",47.940068:19.04961
wdip,"Dióspuszta",megszűnt kisvasúti,"",
dsvi,"Diósviszló",megszűnt állomás,"",
wdir,"Diriczi tanya",megszűnt kisvasúti,"",
doba,"Dobaipuszta",megszűnt megállóhely,"",46.975422:21.454023
wdoi,"Dobó iskola",megszűnt kisvasúti megállóhely,"",
dobc,"Dobóca",(Felvidék/Szlovákia),"Dubovec",
dobo,"Doborján-Lakfalva",megálló-rakodóhely (Ausztria),"Raiding-Lackendorf",
dniv,"",megszűnt (Felvidék/Szlovákia),"",
dniz,"",megszűnt megállóhely (Felvidék/Szlovákia),"",
dobs,"Dobsina",állomás (Felvidék/Szlovákia),"Dobšiná",48.81334:20.384247
dsje,"",(Felvidék/Szlovákia),"",
dohn,"",(Felvidék/Szlovákia),"",
mghm,"",megszűnt (Felvidék/Szlovákia),"",
dhar,"",(Felvidék/Szlovákia),"",
wdos,"Domaszék",megszűnt kisvasúti állomás,"",46.251459:20.00303
domy,"Dombay-tó",megszűnt megállóhely,"",46.145162:18.399315
wdmz,"Dombegyház",megszűnt kisvasúti,"",
wdmf,"Dombegyház felső",megszűnt kisvasúti,"",
wdmh,"Dombegyház Hunyadi út",megszűnt kisvasúti,"",
wdob,"Dombiratos",megszűnt kisvasúti állomás,"",
wdif,"Dombiratos felső",megszűnt kisvasúti megállóhely,"",
domt,"Dombostanya",megállóhely,"",47.602895:21.706515
domv,"Dombóvár",állomás,"Új-Dombóvár",46.370043:18.149514
doma,"Dombóvár alsó",állomás,"",46.363797:18.134075
wdom,"Dombrád",megszűnt kisvasúti állomás,"",
dona,"Dónát",megállóhely,"",46.669876:20.368231
donj,"",(Horvátország),"Dolnji Miholjac",
wdor,"Dorkó",megszűnt kisvasúti megállóhely,"",
doro,"Dorog",állomás,"",47.723342:18.732896
wdok,"Dózsa kitérő",megszűnt kisvasúti állomás,"",
wdot,"Dózsa tsz",megszűnt kisvasúti,"",
wdoz,"Dózsalaktanya",megszűnt kisvasúti megállóhely,"",
drah,"",megállóhely (Felvidék/Szlovákia),"",
drvc,"Drávacsepely",megszűnt megállóhely,"",
drvf,"Drávafok",megszűnt állomás,"",
drvp,"Drávapalkonya-Drávaszabolcs",megszűnt megállóhely,"",
drvb,"Drávaszabolcs",megszűnt állomás,"",
drvs,"Drávasztára-Zaláta",megszűnt állomás,"Sztára-Zaláta",45.796887:17.865808
drvt,"Drávatamási",megszűnt megállóhely,"",
draz,"",(Felvidék/Szlovákia),"",
dreg,"Drégely",megállóhely,"",48.042451:19.057012
drep,"Drégelypalánk",állomás,"",48.054828:19.046748
drev,"Drégelyvár",megállóhely,"",48.002026:19.079606
dubi,"Dubicsány",megállóhely,"",48.280657:20.504509
dubp,"Dubravapuszta",megállóhely (Felvidék/Szlovákia),"Vysoká pri Morave zastávka",
duda,"Dudar",megszűnt megállóhely,"",
dudb,"Dudarbánya",megszűnt állomás,"",
dudi,"",megszűnt (Felvidék/Szlovákia),"",
dulo,"Dúlóújfalu",megszűnt (Felvidék/Szlovákia),"Dulov",
dnal,"Dunaalmás",megállóhely,"",47.732984:18.326232
dneh,"Dunaegyháza",megszűnt megállóhely,"",46.844909:19.004369
dnfo,"Dunaföldvár",megszűnt állomás,"",46.793185:18.91261
dnff,"Dunaföldvár felső",megszűnt megállóhely,"",
dnhr,"Dunaharaszti",állomás,"",47.352759:19.096621
dnha,"Dunaharaszti alsó",megállóhely,"",47.340411:19.086993
dnhf,"Dunaharaszti felső",,"",
dnhk,"Dunaharaszti külső",,"",
dnfi,"Dunai Finomító",állomás,"",47.294444:18.878942
dnjo,"",(Felvidék/Szlovákia),"",
dnke,"Dunakeszi",állomás,"Dunakeszi-Alag",47.625803:19.136199
dnka,"Dunakeszi alsó",megállóhely,"",47.607549:19.128785
dnkm,"Dunakeszi megálló",megszűnt megállóhely,"",47.637744:19.13493
dnkg,"Dunakeszi-Gyártelep",megállóhely,"Dunakeszi műhelytelep",47.643386:19.134796
dnom,"Dunakömlőd",megszűnt megállóhely,"",46.668631:18.880594
dnpa,"Dunapataj",megszűnt állomás,"",46.646599:19.008835
dnse,"Dunaszerdahely",(Felvidék/Szlovákia),"Dunajská Streda",
dnte,"Dunatetétlen",megszűnt,"",
dnuj,"Dunaújváros",állomás,"Dunapentele, Sztálinváros",46.960656:18.914001
dnuk,"Dunaújváros külső",megállóhely,"",46.982897:18.903585
dnut,"Dunaújváros-Kikötő",teherpályaudvar,"",
dnva,"Dunavarsány",megállóhely,"Dunakisvarsány",47.274498:19.06479
dnve,"Dunavecse",megszűnt állomás,"",46.920309:18.980324
dnjk,"",(Horvátország),"",
durt,"Durvaytéglagyár",megszűnt (Felvidék/Szlovákia),"",
duzs,"Dúzs",megállóhely,"",46.49419:18.377448
dvor,"Dvorniky",megszűnt (Felvidék/Szlovákia),"",
dvoy,"",(Felvidék/Szlovákia),"",
dobr,"Döbrököz",állomás,"",46.416438:18.252956
wdme,"Dömefölde",kisvasúti állomás,"",46.58366:16.664954
dome,"Dömeháza",megszűnt (Felvidék/Szlovákia),"Domaníky",
doms,"Dömsöd",állomás,"",47.110436:19.079404
dmsa,"Dömösi átkelés",megállóhely,"",47.770468:18.917598
dor_,"Dör",megállóhely,"",
cabs,"",(Felvidék/Szlovákia),"",
cabz,"",(Felvidék/Szlovákia),"",
eben,"",állomás (Ausztria),"",
ebes,"Ebes",állomás,"",
ebsz,"Ebszőnybánya",megszűnt állomás,"",
ecs_,"Écs",megállóhely,"Nagy-Écs, Nagyécs, Nagyécsfalu",47.561086:17.728868
ecse,"Ecser",megállóhely,"",47.440568:19.314847
edel,"Edelény",állomás,"",48.299696:20.749433
edea,"Edelény alsó",megállóhely,"Finke",48.278787:20.760944
ceho,"",(Horvátország),"",
egbe,"Egbell",(Felvidék/Szlovákia),"Gbely",
egeg,"Egeg-Szalatnya",megszűnt (Felvidék/Szlovákia),"Slatina",
eger,"Eger",állomás,"",47.89185:20.381595
egfe,"Eger-Felnémet",állomás,"Felnémet",47.936549:20.370654
egrn,"Eger-Rendező",teherpályaudvar,"",
egti,"Eger-Tihamér",megszűnt állomás,"Tihamér",47.888807:20.396915
wegv,"Egeresvölgy-Varróház",kisvasúti megállóhely,"",47.996334:20.436453
egfa,"Egerfarmos",állomás,"",47.711517:20.522449
wege,"Égéri elágazás",megszűnt kisvasúti állomás,"",
egva,"Egervár",megállóhely,"",47.907672:20.380818
egvv,"Egervár-Vasboldogasszony",állomás,"",46.941887:16.862542
egyr,"Egyed-Rábacsanak",állomás,"",47.522166:17.316547
egyk,"Egyek",állomás,"",47.616681:20.883674
egta,"Egyetemi Tangazdaság",megszűnt megállóhely,"",
egyf,"Egyetemváros",megszűnt megálló-rakodóhely,"",48.077342:20.774778
ehra,"Egyházasrádóc",állomás,"",47.090958:16.619707
eher,"Egyházerdő",megállóhely,"",47.972758:21.365036
ciez,"",(Felvidék/Szlovákia),"",
ciep,"",(Felvidék/Szlovákia),"",
eiss,"",(Ausztria),"",
ekec,"Ekecs",(Felvidék/Szlovákia),"Okoč",
ekel,"Ekel",(Felvidék/Szlovákia),"Okoličná na Ostrove",
wela,"Elágazás",megszűnt kisvasúti állomás,"",
elec,"Elecske",(Felvidék/Szlovákia),"Alekšince",
elek,"Elek",megszűnt állomás,"",46.523712:21.247784
wele,"Eleki út",megszűnt kisvasúti megállóhely,"",
eloh,"Előhát",megállóhely,"",
elos,"Előszállás",megszűnt állomás,"",46.832724:18.832414
elza,"Elzaszállás",megszűnt megállóhely (Szerbia),"",
emma,"Emmamajor",megszűnt megállóhely,"Egyed-Rakodó",
emod,"Emőd",állomás,"",47.930806:20.822697
enes,"Enese",állomás,"",47.64428:17.425505
enye,"Enyedpuszta",(Felvidék/Szlovákia),"Kútniky",
enyc,"Enyicke",(Felvidék/Szlovákia),"Haniska pri Košiciach",
enyi,"Enying",megszűnt állomás,"",46.923165:18.257876
colt,"",(Felvidék/Szlovákia),"",
eper,"Eperjeske alsó",megállóhely,"",48.36057:22.190169
epea,"Eperjeske-Átrakó",teherpályaudvar,"",48.34008:22.144247
eprr,"Eperjeske-Rendező",teherpályaudvar,"",48.358757:22.186672
eple,"Eplény",állomás,"",47.192686:17.922011
ercs,"Ercsi",állomás,"",47.247183:18.875488
wemx,"Ercsi Marx tér",megszűnt kisvasúti állomás,"",
erd_,"Érd",állomás,"",47.369991:18.901059
erda,"Érd alsó",állomás,"",47.379902:18.923877
erdf,"Érd felső",megállóhely,"",47.381315:18.922848
erde,"Érd-Elágazás",szolgálati hely,"",
werk,"Erdei kitérő",megszűnt kisvasúti,"",
werl,"Erdészlak",kisvasúti,"",47.543691:21.736953
erdl,"Érdliget",megállóhely,"",47.389597:18.937125
erdb,"Erdőbénye",megállóhely,"Erdőbényefürdő",48.218088:21.401903
wefu,"Erdőfű",megszűnt kisvasúti állomás,"",
erdk,"Erdőkertes",megállóhely,"Erdőváros",47.66222:19.295896
erdz,"Erdőköz",(Felvidék/Szlovákia),"Pohronská Polhora",
erdm,"Erdősmecske",megszűnt állomás,"",46.150236:18.517132
erds,"Erdőszél",megállóhely,"Vármegyehatár",
erdt,"Erdőtelek",állomás,"",
werd,"Érdülő",megszűnt kisvasúti megállóhely,"",
erek,"Ereklyés",megszűnt állomás,"",
crem,"",(Felvidék/Szlovákia),"",
were,"Erenyő",megszűnt kisvasúti megállóhely,"",
werb,"Erenyő-bánya",megszűnt kisvasúti megállóhely,"",
werh,"Érhát",megszűnt kisvasúti megállóhely,"",
ermi,"Érmihályfalva",állomás (Románia/Erdély),"Valea lui Mihai",
eros,"Erőspuszta",megszűnt megállóhely,"",
erse,"Érsekújvár",állomás (Felvidék/Szlovákia),"Nové Zámky",
werz,"Erzsébetmajor",megszűnt kisvasúti megállóhely,"",
esze,"Eszék",állomás (Horvátország),"Osijek",
eszd,"Eszék-Drávahíd",(Horvátország),"Osijek Dravski Most",
eszt,"Esztergom",állomás,"",47.777615:18.743428
eszk,"Esztergom-Kertváros",állomás,"Esztergom-Kenyérmező, Kenyérmezőmajor",47.742946:18.717734
eszc,"Esztergomi csavargőzös",megszűnt (Felvidék/Szlovákia),"Kovácspatak",
eszb,"Esztergomi tábor",megszűnt megállóhely,"",
ete_,"Ete",megszűnt megállóhely,"",47.515672:18.078112
wetk,"Etelka",megszűnt kisvasúti megállóhely,"",
eter,"Eternitgyár",megállóhely,"",47.75553:18.53001
eotm,"Eötvös major",megszűnt megállóhely,"",
fabi,"Fábiánsebestyén",megállóhely,"",46.670018:20.456555
faca,"Fácánkert",megállóhely,"",46.448891:18.735761
wfak,"Fakapu",megszűnt kisvasúti megállóhely,"",
wfrn,"Fancsika",kisvasúti,"",
fara,"Farád",megállóhely,"",
wfar,"Farkasgödör Örvénykő",megszűnt állomás,"",
wfbo,"Farkasmály-Borpincék",kisvasúti,"Farkasmály-Kékes",
fkpe,"Farkaspetőfalva",(Felvidék/Szlovákia),"Vlkanová",
farm,"Farmos",megállóhely,"",47.355384:19.837427
fazz,"Fazekaszsaluzsány",megszűnt (Felvidék/Szlovákia),"Hrnčiarske Zalužan",
wfec,"Fegyvernek piactér",megszűnt kisvasúti állomás,"",
wfeb,"Fegyvernek szabadságtelep",megszűnt kisvasúti,"",
wfet,"Fegyvernek Tópart",megszűnt kisvasúti,"",
wfev,"Fegyvernek vásártér",megszűnt kisvasúti,"",
fegy,"Fegyvernek-Örményes",állomás,"Fegyvernek",
wfeu,"Fegyverneki út",megszűnt kisvasúti,"",
fehe,"Fehérgyarmat",állomás,"",47.978839:22.524313
wfhh,"Fehérhát",megszűnt kisvasúti megállóhely,"",
wfhf,"Fehértó felső",megszűnt kisvasúti,"",46.854806:19.661708
fehc,"Fehérvárcsurgó",megállóhely,"",47.285877:18.291894
fekd,"Feked",megszűnt megállóhely,"",46.150153:18.555753
fekt,"Fekete",megszűnt megállóhely,"",
fekb,"Feketebézseny",megszűnt megállóhely,"",46.719705:17.57924
fekh,"Feketehalom",megszűnt megállóhely,"",
wfeh,"Feketehalomtanya",megszűnt megállóhely,"",
fnta,"Feketenagytanya",megszűnt megállóhely,"",
wfes,"Feketeszél",megszűnt kisvasúti megállóhely,"",
fekv,"Feketeváros",(Ausztria),"Purbach/Neusiedler See",
wfek,"Feketevölgy",kisvasúti,"",
felc,"Felcsút",megszűnt megállóhely,"",47.456819:18.591281
feld,"Feldebrő",megszűnt állomás,"",47.811303:20.218782
fele,"Feled",állomás (Felvidék/Szlovákia),"Jesenské",
fist,"Felistál-Alsónyárasd",állomás (Felvidék/Szlovákia),"Dolný Štál",
wfbe,"Felsőbéda",megszűnt kisvasúti,"",
wfbi,"Felsőbikol",megszűnt kisvasúti állomás,"",
febo,"Felsőbogátpuszta",megszűnt megállóhely,"",
wfce,"Felsőcebe",megszűnt kisvasúti,"",46.644039:19.35247
fcsm,"Felsőcsemő",megszűnt,"",
fcsi,"Felsőcsinger",megszűnt teherpályaudvar,"",
feer,"Felsőerzsébetpuszta",megszűnt megállóhely,"",
fega,"Felsőgalla",megszűnt állomás,"Tatabánya felső",
fego,"Felsőgöd",megállóhely,"Göd felső",47.705479:19.143212
feja,"Felsőjánosfa",megállóhely,"Csöde-Jánosfa",46.841398:16.543627
fjan,"Felsőjánosfa régi",megszűnt megállóhely,"",
wfka,"Felsőkak",kisvasúti állomás,"",46.481532:17.509821
feko,"Felsőkörtvélyes",megszűnt megállóhely,"Nagylók-Felsőkörtvélyes",
fela,"Felsőlajos",megállóhely,"",47.069044:19.498275
flas,"Felsőlászló",megszűnt állomás (Ausztria),"Oberloisdorf",47.446584:16.516468
flov,"Felsőlövő",megállóhely (Ausztria),"Oberschützen",
feme,"Felsőméntelek",megállóhely,"",46.987017:19.55785
femo,"Felsőmocsolád",állomás,"",46.559264:17.82164
fenk,"Felsőnyék",megszűnt megállóhely,"",46.790817:18.298917
feor,"Felsőőr",állomás (Ausztria),"Oberwart",47.290154:16.21273
fozo,"Felsőozor",megszűnt (Felvidék/Szlovákia),"",
fepa,"Felsőpakony",megállóhely,"",47.343195:19.230579
fpat,"Felsőpaty",megszűnt állomás,"",
fpel,"Felsőpél",(Felvidék/Szlovákia),"Horný Pial",
fpuy,"Felsőpulya",állomás (Ausztria),"Oberpullendorf",
fera,"Felsőrajk",állomás,"",
frec,"Felsőrécsény",(Felvidék/Szlovákia),"Rišňovce",
fstu,"Felsőstubnya",állomás (Felvidék/Szlovákia),"Horná Štubňa",
fszc,"Felsőszecse",megszűnt (Felvidék/Szlovákia),"",
fsem,"Felsőszernye",(Felvidék/Szlovákia),"Horné Srnie",
wftd,"Felsőtárkány Dohánygyári üdülő",megszűnt kisvasúti,"",
wftm,"Felsőtárkány Mészégető",megszűnt kisvasúti,"",
wfts,"Felsőtárkány Sziklaforrás",megszűnt kisvasúti,"",
wftv,"Felsőtárkány Vadaskert",megszűnt kisvasúti,"",
wftf,"Felsőtárkány-Fűtőház",kisvasúti állomás,"",47.980079:20.43216
wfva,"Felsővadács",megszűnt kisvasúti,"",
fezs,"Felsőzsolca",állomás,"",48.083651:20.866089
forh,"Felsőöreghegy",megszűnt,"Blaha Lujza fürdő",
fene,"Fenékpuszta",megállóhely,"",46.71174:17.248759
feny,"Fényes",megállóhely,"",46.659985:21.165673
fnys,"Fényesi szőlők",megszűnt megállóhely,"",
fnyl,"Fényeslitke",állomás,"",48.26742:22.107196
fnye,"Fenyves",(Felvidék/Szlovákia),"Zbojská, Remete",
wfbt,"Fenyves baromfitelep",megszűnt kisvasúti megállóhely,"",
fnyv,"Fenyveshegy",megállóhely,"Verőce-Fenyves",47.818176:19.068332
fnyo,"Fenyvesszoros",(Felvidék/Szlovákia),"Svrčinovec",
fern,"Ferencszállás",megszűnt megállóhely,"",46.199561:20.354372
frta,"Ferenctanya",megszűnt megállóhely,"",
fere,"Ferenctelep",megszűnt megállóhely,"",45.977622:17.383412
fert,"Ferenctelep SK",megszűnt állomás (Felvidék/Szlovákia),"Počkaj",
bufe,"Ferencváros",állomás,"Budapest-Ferencváros",47.468657:19.088637
feri,"Ferihegy",megállóhely,"",47.437486:19.223648
frbz,"Fertőboz",állomás,"",47.625126:16.691552
wfbm,"Fertőboz-Múzeumvasút",kisvasúti,"",47.624683:16.691976
fren,"Fertőendréd",megszűnt állomás,"",
frfh,"Fertőfehéregyháza",megállóhely (Ausztria),"Donnerskirchen",
frma,"Fertőmajor-Oka",megszűnt (Ausztria),"Oggau",
frse,"Fertőszéleskút",(Ausztria),"Breitenbrunn im Bgld",
frsz,"Fertőszentmiklós",állomás,"Eszterháza, Fertőszentmiklós-Eszterháza",47.599783:16.8598
frsa,"Fertőszentmiklós alsó",megszűnt megállóhely,"Fertőszentmiklós mh.",
frfe,"Fertőszéplak-Fertőd",állomás,"Fertőszéplak",
frul,"Fertőújlak",megszűnt állomás,"Mekszikópuszta",
fila,"Filatorigát",megállóhely,"",47.551867:19.046255
filt,"Filatorigát-Teher",megszűnt teherpályaudvar,"",47.552071:19.043753
fity,"Fityeház",megállóhely,"",46.379108:16.921526
wfod,"Fodortanya",megszűnt kisvasúti megállóhely,"",
foly,"Folyás",megszűnt megállóhely,"",
fony,"Fony",megállóhely,"",48.410955:21.242367
fnyd,"Fonyód",állomás,"",46.749661:17.556435
fnli,"Fonyódliget",megállóhely,"",46.75923:17.592556
fore,"Fornád-Kecsege",megszűnt megállóhely,"",
forr,"Forró-Encs",állomás,"",48.327541:21.117719
fot_,"Fót",állomás,"",47.611363:19.181819
fotf,"Fótfürdő",megállóhely,"",47.621735:19.200763
fotu,"Fótújfalu",megállóhely,"",47.614973:19.19283
fran,"Franciavágás",megszűnt állomás,"",47.34856:17.637392
fupe,"Fűperegpuszta",megszűnt megállóhely,"",46.317768:20.867887
wffz,"Fűzfás",megszűnt kisvasúti,"",
blfg,"Fűzfő-Gyártelep",megszűnt teherpályaudvar,"",
fzfu,"Fűzfőfürdő",megszűnt megállóhely,"",
fule,"Füle",megállóhely,"",47.050059:18.25577
fulk,"Fülek",állomás (Felvidék/Szlovákia),"Fiľakovo",
fulg,"Fülek-gyártelep",megállóhely (Felvidék/Szlovákia),"Fiľakovo zastávka, Fiľakovo továreň",
fulp,"Fülekipuszta",megszűnt megállóhely,"Szabolcsszállás",
wful,"Fülesd",megszűnt kisvasúti állomás,"",
fulo,"Fülöpszállás",állomás,"",46.821162:19.246884
furw,"Für",megszűnt (Felvidék/Szlovákia),"",
furg,"Fürged",megszűnt megállóhely,"",46.728036:18.28861
furj,"Fürjes",megállóhely,"",46.672361:21.023416
wfuz,"Füzérkomlós",megszűnt kisvasúti állomás,"",
wfur,"Füzérradvány",megszűnt kisvasúti megállóhely,"",
fzab,"Füzesabony",állomás,"",47.750706:20.412697
fzbo,"Füzesbokor",megállóhely,"",47.990012:21.645348
fzgy,"Füzesgyarmat",állomás,"",47.113059:21.194255
fzgm,"Füzesgyarmat-Macskás",megszűnt megállóhely,"Macskás",
fzgt,"Füzesgyarmat-Téglagyár",megszűnt megállóhely,"",47.087307:21.201314
fzgf,"Füzesgyarmatfürdő",megállóhely,"",47.093667:21.201592
fold,"Földeák",megszűnt állomás,"",46.313721:20.488104
forg,"Förgepatony",(Felvidék/Szlovákia),"Diósförgepatony, Orechová Potôň",
fove,"Fövenyes",megállóhely,"Antaltelep, Kiliántelep",46.893538:17.789635
fovp,"Fövenypuszta",megszűnt megállóhely,"",
wgab,"Gábortelep",megszűnt kisvasúti állomás,"",
gaac,"Gács",megszűnt állomás (Felvidék/Szlovákia),"Halič",48.351774:19.585146
gacs,"Gacsály",megállóhely,"",47.926326:22.745112
gadc,"Gadóc",(Felvidék/Szlovákia),"Hadovce",
gadr,"Gádor",megszűnt állomás (Szerbia),"",45.894638:19.071922
gado,"Gádoros",állomás,"",46.656626:20.588242
gajd,"Gajdospuszta",megszűnt megállóhely,"",
galh,"Galambház",megszűnt megállóhely,"",
gala,"Galambos",állomás,"",46.625185:19.801195
galn,"Galánta",állomás (Felvidék/Szlovákia),"Galanta",
wglb,"Galbács kert",megszűnt kisvasúti,"",
glgu,"Galgaguta",állomás,"",47.846333:19.386148
glgy,"Galgagyörk",megállóhely,"",
glhe,"Galgahévíz",megállóhely,"",47.632436:19.558486
glma,"Galgamácsa",állomás,"",47.694071:19.392509
galg,"Galgóc",(Felvidék/Szlovákia),"Hlohovec",
gals,"Gálos",(Ausztria),"Gols",
galo,"Gálosfa",megszűnt állomás,"",
gama,"Gamásza",megszűnt megállóhely,"",
gany,"Gány",(Felvidék/Szlovákia),"Gáň",
gara,"Gara",megszűnt állomás,"",
garf,"Gara felső",megszűnt megállóhely,"",
wgar,"Garadna",kisvasúti állomás,"",48.11627:20.558239
gmbr,"Garamberzence",állomás (Felvidék/Szlovákia),"Hronská Breznica",
gmda,"Garamdamásd",(Felvidék/Szlovákia),"Hronovce",
gmhi,"Garamhidvég",(Felvidék/Szlovákia),"Dubová",
gmko,"Garamkovácsi",állomás (Felvidék/Szlovákia),"Kozárovce",
gark,"Garamkövesd",megszűnt állomás (Felvidék/Szlovákia),"Kamenica nad Hronom",
gmlo,"Garamlök",(Felvidék/Szlovákia),"Lok",
gmne,"Garamnémetfalva",(Felvidék/Szlovákia),"Nemecká",
gmol,"Garamolaszka",(Felvidék/Szlovákia),"Valaská",
gmpe,"Garampéteri",(Felvidék/Szlovákia),"Predajná",
gmre,"Garamrév",(Felvidék/Szlovákia),"Voznica",
gmru,"Garamrudnó",(Felvidék/Szlovákia),"Rudno nad Hronom",
gmsa,"Garamsálfalva",(Felvidék/Szlovákia),"Šalková",
gmss,"Garamsashegy",megszűnt (Felvidék/Szlovákia),"",
gmsc,"Garamszécs",(Felvidék/Szlovákia),"Polomka",
gmse,"Garamszeg",(Felvidék/Szlovákia),"Hronsek",
gmbe,"Garamszentbenedek",(Felvidék/Szlovákia),"Hronský Beňadik",
gmke,"Garamszentkereszt",(Felvidék/Szlovákia),"Žiar nad Hronom",
gard,"Gárdony",állomás,"",47.205996:18.624723
gasp,"Gáspárd",(Felvidék/Szlovákia),"Gašparovo",
gate,"Gátér",állomás,"",46.685021:19.9623
wgav,"Gávavencsellő",megszűnt kisvasúti,"",
wgaa,"Gávavencsellő alsó",megszűnt kisvasúti,"Vencsellő község",
wgaf,"Gávavencsellő felső",megszűnt kisvasúti megállóhely,"Gáva község",48.165423:21.59344
gazt,"Gazdasági tanítóképző",(Felvidék/Szlovákia),"Komárno škola",
gazl,"Gázlós",(Felvidék/Szlovákia),"Brodské",
gbez,"",megállóhely (Felvidék/Szlovákia),"",
gecs,"Gecse-Gyarmat",állomás,"",47.456228:17.515123
gege,"Gégény",,"",48.128662:21.952557
gele,"Geletnek-Szklenófürdő",(Felvidék/Szlovákia),"Hliník nad Hronom",
gelz,"",(Felvidék/Szlovákia),"",
gels,"Gelse",állomás,"",46.600337:16.982672
wgmu,"Gemenc-Dunapart",kisvasúti állomás,"",
wgmd,"Gemenci delta",kisvasúti,"",
wgnc,"Gencs",megszűnt kisvasúti,"",
gena,"Gencsapáti alsó",megállóhely,"",47.285811:16.600111
genf,"Gencsapáti felső",megállóhely,"",47.299493:16.593765
wgep,"Gépállomás",megszűnt kisvasúti,"",
gerc,"Gérce",megszűnt állomás,"",47.211017:17.023505
wger,"Gerecse",megszűnt kisvasúti,"",
wgen,"Gerencepuszta",megszűnt kisvasúti,"",
gerj,"Gerje",megszűnt állomás,"",
gich,"Gic-Hathalom",megszűnt állomás,"",47.427992:17.747966
wgil,"Gilányi",megszűnt kisvasúti,"",
gocs,"Gócs",megállóhely (Felvidék/Szlovákia),"Gočovo",48.755457:20.416742
godi,"Godisa",állomás,"Bakóca-Godisa, Bakócza-Felső-Mindszent",46.223298:18.104705
wgod,"Godóvár",kisvasúti állomás,"",48.000063:18.900545
goga,"Gógánfa",megállóhely,"",47.021169:17.207668
gola,"Góla",megszűnt állomás,"",46.206607:17.045193
golo,"Golop",megállóhely,"",48.242504:21.20473
goms,"Gombaszög",megszűnt (Felvidék/Szlovákia),"",
gor_,"Gór",megszűnt megállóhely,"",
gork,"Gortvakisfalud",(Felvidék/Szlovákia),"Gortva",
gorz,"Gorzsa",megszűnt megállóhely,"",46.372105:20.429349
gosf,"Gősfa",megszűnt,"",46.957962:16.852003
grin,"Grinád",megállóhely (Felvidék/Szlovákia),"Pezinok zastávka",
wgub,"Gubás",megszűnt kisvasúti megállóhely,"",
guta,"Gúta",(Felvidék/Szlovákia),"Kolárovo",
wgut,"Guth",megszűnt kisvasúti megállóhely,"",
guto,"Gutorfölde",állomás,"",
gyal,"Gyál",állomás,"Gyálpuszta",47.375965:19.220213
gyaf,"Gyál felső",megállóhely,"Gyálpusztai szőlők",47.389404:19.205784
gyan,"Gyanafalva",állomás (Ausztria),"Jennersdorf",
gyar,"Gyarak",(Felvidék/Szlovákia),"Kmeťovo",
gyek,"Gyékényes",állomás,"",46.24925:16.955963
gykb,"Gyékényes-Kavicsbánya",teherpályaudvar,"",
gyen,"Gyenesdiás",megállóhely,"",
gerk,"Gyerk",megszűnt (Felvidék/Szlovákia),"Hrkovce",
wgeo,"Gyermekotthon",megszűnt kisvasúti,"",
gyet,"Gyetva",(Felvidék/Szlovákia),"Detva",
gyom,"Gyoma",állomás,"",46.927224:20.820879
gyoe,"Gyomai elágazás",megszűnt szolgálati hely,"Gyoma-Nagyállás",46.947845:20.802441
gyon,"Gyón",megállóhely,"",47.180649:19.351379
gyop,"Gyopárosfürdő",megállóhely,"Gyopárosfürdő felső",46.567716:20.630574
gyps,"Gyopárosi szőlők",megszűnt megállóhely,"",
gyor,"Győr",állomás,"",47.682029:17.634118
gygs,"Győr GySEV",megszűnt állomás,"",
gydu,"Győr-Dunapart",megszűnt teherpályaudvar,"",
gygy,"Győr-Gyárváros",megállóhely,"",47.684512:17.663511
gygo,"Győr-Gönyű Kikötő",teherpályaudvar,"",
gynv,"Győr-Növényolajgyár",teherpályaudvar,"",
gyrn,"Győr-Rendező",teherpályaudvar,"",
gyvg,"Győr-Vagongyár",megszűnt teherpályaudvar,"",
gyas,"Győrasszonyfa",megállóhely,"",47.494036:17.79893
gyip,"Győri ipartelepek",megszűnt megállóhely,"",
gysa,"Győrszabadhegy",állomás,"",47.663385:17.648203
gyse,"Győrszemere",állomás,"",47.567168:17.58466
gysi,"Győrszentiván",állomás,"",47.688769:17.746093
gyte,"Győrtelek",megállóhely,"",47.936848:22.424732
gyta,"Győrtelek alsó",állomás,"Győrtelek-Jékey tanya",47.921064:22.443387
gyva,"Győrvár",megállóhely,"",46.989733:16.842156
wgyb,"Gyóta-Busvár",kisvasúti,"",
gyul,"Gyula",állomás,"",46.6564:21.273342
wgyg,"Gyula GV",megszűnt kisvasúti állomás,"",
gyuj,"Gyula-Jánoszug",megszűnt megállóhely,"",46.659263:21.21035
gyuh,"Gyulaháza",megszűnt megállóhely,"",
gyuv,"Gyulai városerdő",megállóhely,"",46.694878:21.322777
gyum,"Gyulamező",megszűnt megállóhely,"",
wgyi,"Gyulavári",megszűnt kisvasúti,"",
gyup,"Gyurgyókapuszta",megszűnt megállóhely,"",
gyug,"Gyügér",megszűnt megállóhely,"",
gylv,"Gyülevész",megszűnt megállóhely,"",
gyur,"Gyüre",állomás,"",
gyok,"Gyökérkút",megállóhely,"",47.617585:21.006007
gyro,"Gyömrő",állomás,"Gyömrő-Kócánpuszta",47.429632:19.393939
gyrt,"Gyömrő-Tófürdő",megszűnt megállóhely,"",
gyre,"Gyömöre",állomás,"",47.485289:17.55878
gymt,"Gyömöre-Tét",megállóhely,"Gyömöre-Vásártér",47.501627:17.559551
gyfm,"Gyöngyfa-Magyarmecske",megállóhely,"",45.983009:17.956922
gyng,"Gyöngyös",állomás,"",47.783101:19.937274
wgyn,"Gyöngyös EV",kisvasúti állomás,"Gyöngyös Előre",47.784036:19.933544
wgyf,"Gyöngyös felső",kisvasúti,"Gyöngyös Pajtás",
gyfa,"Gyöngyösfalu",megállóhely,"",47.316431:16.588587
gyha,"Gyöngyöshalász",megállóhely,"",47.744313:19.932386
gyhe,"Gyöngyöshermán",megállóhely,"",47.202856:16.657228
wgyl,"Gyöngyösoldal",kisvasúti,"",
wgys,"Gyöngyössolymos",kisvasúti,"",
wgyu,"Gyöngyössolymos-Fűtőház",megszűnt kisvasúti,"",
gyrl,"Györgyliget",megszűnt megállóhely,"",
wgyt,"Györgytarló",megszűnt kisvasúti megállóhely,"",
god_,"Göd",állomás,"",47.687847:19.137473
gdll,"Gödöllő",állomás,"",47.591821:19.358712
gdle,"Gödöllő Erzsébetpark",,"",
gdlh,"Gödöllő HÉV",állomás,"",
gdlp,"Gödöllő Palotakert",,"",
gdls,"Gödöllő Szabadság tér",,"",
gdla,"Gödöllő-Állami telepek",megállóhely,"Gödöllő méhészeti gazdaság",47.564312:19.375561
wgol,"Gölle",megszűnt kisvasúti állomás,"",
wgof,"Gölle felső",megszűnt kisvasúti megállóhely,"",
goln,"Gölnicbánya",(Felvidék/Szlovákia),"Gelnica",
golv,"Gölnicbánya város",(Felvidék/Szlovákia),"Gelnica mesto",
gmce,"Gömörcserepes",megszűnt (Felvidék/Szlovákia),"Hrnčiarksa Ves",
gmpa,"Gömörpanyit",(Felvidék/Szlovákia),"Gemerská Panica",
gmsi,"Gömörsid",(Felvidék/Szlovákia),"Šíd",
gmve,"Gömörvég",(Felvidék/Szlovákia),"Tisovec-Bánovo",
gonc,"Gönc",állomás,"",48.470526:21.261575
gonr,"Göncruszka",megállóhely,"",48.445405:21.24707
wgrd,"Görbed",megszűnt kisvasúti megállóhely,"",
gorb,"Görbeháza",megszűnt megállóhely,"",
wgok,"Görbekanyar",megszűnt kisvasúti állomás,"",
wgor,"Görbemajor",megszűnt kisvasúti,"",46.814484:19.595915
gorc,"Görcsöny",megszűnt állomás,"",
gorp,"Görénypuszta",megszűnt megállóhely,"",
gort,"Görgeteg",megszűnt állomás,"",
gorg,"Görögszállás",állomás,"",48.039948:21.555324
hacs,"",(Felvidék/Szlovákia),"",
haca,"",(Felvidék/Szlovákia),"",
hagy,"Hagymás",megszűnt megállóhely,"",
whag,"Hagymás GV",megszűnt kisvasúti,"",
hjba,"Hajdúbagos",megszűnt megállóhely,"",47.402932:21.662435
hjbo,"Hajdúböszörmény",állomás,"",47.668781:21.524049
hjdo,"Hajdúdorog",állomás,"",47.805379:21.493121
hjha,"Hajdúhadház",állomás,"",47.686794:21.679314
hjja,"Hajdújárás",(Szerbia),"Hajdukovo, &#1061;&#1072;&#1112;&#1076;&#1091;&#1082;&#1086;&#1074;&#1086;, Ludaspuszta",
hjna,"Hajdúnánás",állomás,"",47.831854:21.427607
hjsv,"Hajdúnánás-Vásártér",megállóhely,"",47.842802:21.407588
hjss,"Hajdúsámson",állomás,"",47.608074:21.754848
hjst,"Hajdúsámsoni tanyák",megszűnt megállóhely,"",
hjsg,"Hajdúszentgyörgy",megállóhely,"",47.608159:21.578433
hjso,"Hajdúszoboszló",állomás,"",47.429305:21.40695
hjvi,"Hajdúvid",megállóhely,"Vid",47.748602:21.508237
hjvo,"Hajdúvölgy",megszűnt megállóhely,"Székácsmajor",
hajm,"Hajmáskér",állomás,"",47.14101:18.009547
haju,"Hajmáskér-Újtelep",megállóhely,"",47.147713:18.039386
hajn,"Hajnalos",megállóhely,"",
hala,"Haláp",megállóhely,"",47.521645:21.818739
whlp,"Haláperdő",kisvasúti,"",
halt,"Halasi tanyák",megszűnt megállóhely,"",
whai,"Halastelki iskola",megszűnt kisvasúti megállóhely,"",
halr,"Halászaranyos",megszűnt megállóhely,"",
hall,"Halászlak",megállóhely,"Halásztelek",46.911196:20.562453
whal,"Halásztanya",megszűnt kisvasúti megállóhely,"",
hale,"Halesz",megszűnt megállóhely,"",
hali,"Halipuszta",megállóhely,"Tét-Felpéc, Felpécz-Halipuszta",47.520191:17.560593
halm,"Halmaj",állomás,"",48.246473:20.991397
whay,"Halyagos",kisvasúti,"",
wham,"Hamuház",kisvasúti,"",
whhz,"Hamuháza",megszűnt kisvasúti,"",
hans,"Hanság-Nagyerdő",megállóhely,"",
hanl,"Hanságliget",megállóhely,"Hansági tanyák",
hant,"Hantháza",megszűnt állomás,"Kupai Kovácsmajor",
hara,"Harádics",(Felvidék/Szlovákia),"Hradište pod Vrátnom",
harl,"Harangláb",megállóhely,"",
whar,"Harangod",megszűnt kisvasúti,"",
whra,"Haraszt",megszűnt kisvasúti megállóhely,"",
whrc,"Harica",megszűnt kisvasúti állomás,"Harica fűrésztelep",
whac,"Haricabánya",megszűnt kisvasúti állomás,"Ludnabánya",
hari,"Haris",megállóhely,"",
hrka,"Harka",állomás,"Harka-Kópháza, Magyarfalva",47.641568:16.619113
hrkk,"Harkakötöny",állomás,"",
hkny,"Harkány",megszűnt állomás,"Harkányfürdő",45.854682:18.224853
harm,"",(Felvidék/Szlovákia),"",
harj,"",(Felvidék/Szlovákia),"",
hrtm,"Harmann kitérő",(Szerbia),"",
whmh,"Hármashegyalja",kisvasúti,"",47.557575:21.834454
hudv,"Háromudvar-Túrirtovány",(Felvidék/Szlovákia),"Porúbka",
bufh,"Háros",állomás,"Budafok-Háros",47.412934:19.036354
hars,"Hársas-Nyitratormás",(Felvidék/Szlovákia),"Chrenovec",
whrs,"Hárshegy",kisvasúti állomás,"",47.535293:18.961489
hrta,"Harta",megszűnt állomás,"",46.695478:19.041159
whrt,"Hártókút",kisvasúti állomás,"",47.850893:19.020541
whau,"Határ u.",megszűnt kisvasúti,"Határút",
whcs,"Határcsárda",megszűnt kisvasúti,"",46.782138:19.53286
hatm,"Hatmajor",szolgálati hely,"",47.161305:16.696573
whts,"Hatos",megszűnt kisvasúti megállóhely,"",
what,"Hattyas-telep",megszűnt kisvasúti megállóhely,"",
hatv,"Hatvan",állomás,"",47.663621:19.67141
hatr,"Hatvan Rendező pu.",teherpályaudvar,"",47.651478:19.66285
hatk,"Hatvani kavicsbánya",megszűnt teherpályaudvar,"",47.62428:19.710397
hatw,"Hatvani vásártér",megszűnt,"",
hegp,"Hegedűs-puszta",(Felvidék/Szlovákia),"Violín",
hgyh,"Hegyeshalom",állomás,"",47.913472:17.146773
hgyf,"Hegyfalu",állomás,"",
hegk,"Hegykő",megszűnt megállóhely,"",
hejc,"Hejce-Vilmány",megállóhely,"",48.419291:21.245511
hjhj,"Hejőbába-Hejőpapi",megszűnt megállóhely,"",47.90951:20.916395
hjcs,"Hejőcsaba",megszűnt megállóhely,"",48.077647:20.784203
hjcm,"Hejőcsabai Cementművek",teherpályaudvar,"",
hjke,"Hejőkeresztúr",állomás,"",47.960367:20.869678
hjsa,"Hejőszalonta",megszűnt megállóhely,"",47.937096:20.893195
heke,"Hékéd",megállóhely,"",46.675071:20.266907
hele,"Helemba",megállóhely (Felvidék/Szlovákia),"Chľaba",
help,"Helpa",(Felvidék/Szlovákia),"Heľpa",
helv,"Helvécia",megszűnt állomás,"",46.85593:19.616065
henk,"Henckó",megállóhely (Felvidék/Szlovákia),"Henckovce",48.714681:20.430857
henc,"Hencse-Hedrehely",megszűnt állomás,"",
whem,"Hendrik major",megszűnt kisvasúti megállóhely,"",
herc,"Herceghalom",állomás,"",47.493876:18.744893
hsza,"Hercegszántó",megszűnt,"",
hrso,"Hercegszőllős",megszűnt megállóhely (Horvátország),"",
hrnd,"Herend",állomás,"",47.137035:17.760722
hers,"Heresznye",megszűnt megállóhely,"",
herp,"Hermánd papírgyár",teherpályaudvar (Felvidék/Szlovákia),"",
wheu,"Hermina u.",megszűnt kisvasúti,"",
wher,"Herminatanya",megszűnt kisvasúti állomás,"",
hern,"Hernád",megállóhely,"Alsóhernád",47.161394:19.401682
hrca,"Hernádcsány",állomás (Felvidék/Szlovákia),"Čaňa",
hrge,"Hernádgecse",(Felvidék/Szlovákia),"Geča",
hrgo,"Hernádgönyű",(Felvidék/Szlovákia),"Gyňov",
hrnb,"Hernádnémeti-Bőcs",állomás,"Hernádnémeti-Belsőbőcs",48.051511:20.985309
hrsa,"Hernádszentandrás",megszűnt megállóhely,"",
hrsz,"Hernádszurdok",megállóhely,"",
hrve,"Hernádvécse",megszűnt megállóhely,"",
hetn,"Hetény",állomás (Felvidék/Szlovákia),"Chotín",
hete,"Hetényegyháza",állomás,"Kisnyír",46.930899:19.59495
heta,"Hetényegyháza alsó",megszűnt megállóhely,"",
whek,"Hetes kitérő",megszűnt kisvasúti állomás,"",
hetv,"Hetvehely",megállóhely,"",46.128242:18.044984
heve,"Heves",állomás,"",
hevs,"Hevesi szőlők",megszűnt megállóhely,"",
hevv,"Hevesvezekény",megállóhely,"",
hevi,"Hévízgyörk",megállóhely,"",47.638878:19.525874
hidb,"Hidas-Bonyhád",állomás,"",46.269177:18.523303
hidn,"Hidasnémeti",állomás,"",48.508445:21.229882
hidv,"Hídvégardó",megszűnt megállóhely,"Bódvavendégi",
whit,"Hittanya",megszűnt kisvasúti megállóhely,"Móricgáti tanyák",46.638412:19.634384
hizs,"Hizsnyóviz",(Felvidék/Szlovákia),"Lubeník",
hlbo,"",(Felvidék/Szlovákia),"",
hnil,"",(Felvidék/Szlovákia),"",
hnuz,"",megállóhely (Felvidék/Szlovákia),"",
hoda,"Hodász",állomás,"",47.896191:22.213757
hodm,"Hódmezővásárhely",állomás,"",46.413281:20.339937
hodi,"Hódmezővásárhely-Ipartelepek",megszűnt megállóhely,"",46.406625:20.362283
hodu,"Hódmezővásárhely-Újváros",megszűnt megállóhely,"",46.413845:20.356537
hodn,"Hódmezővásárhelyi Népkert",megállóhely,"",46.403336:20.312836
hdnn,"",állomás,"Göding",
hdnz,"",megállóhely,"",
holk,"Hőlak",kisvasúti (Felvidék/Szlovákia),"Trenčianská Teplá obec",
hola,"Hőlak-Trencsénteplic",(Felvidék/Szlovákia),"Trenčianska Teplá",
holi,"Holics",(Felvidék/Szlovákia),"Holič nad Moravou",
homo,"Homok",megállóhely,"",46.945817:20.269467
whom,"Homokosi",megszűnt kisvasúti megállóhely,"",
homg,"Homokszentgyörgy",megszűnt állomás,"",
homt,"Homokterenye",megszűnt megállóhely,"",
hont,"Hont",megszűnt megállóhely,"",48.052413:18.99003
honn,"Hontnémeti",megszűnt (Felvidék/Szlovákia),"Hontianske Nemce",
whon,"Honvéderdő",megszűnt kisvasúti megállóhely,"",
hrgt,"Horgásztanyák",,"",
horg,"Horgos",állomás (Szerbia),"Horgoš, &#1061;&#1086;&#1088;&#1075;&#1086;&#109",
hrki,"Horgosi Királyhalom",állomás (Szerbia),"Bački Vinogradi, &#1041;&#1072;&#1095;&#1082;&#1080; &#1042;&#1080;&#1085;&#1086;&#1075;&#1088;&#1072;&#1076;&#1080;",
hzla,"",(Felvidék/Szlovákia),"",
hsto,"",(Felvidék/Szlovákia),"",
hlid,"",,"",
hhri,"",(Felvidék/Szlovákia),"",
horo,"Horóc",megszűnt (Felvidék/Szlovákia),"Horovce",
horc,"Hort-Csány",állomás,"",47.672306:19.797209
horb,"Hortobágy",állomás,"",47.586134:21.154102
horh,"Hortobágyi Halastó",megállóhely,"",47.603891:21.074096
hort,"Horváth tanyák",megszűnt megállóhely (Szerbia),"",
horj,"Horvátjárfalu",megszűnt (Felvidék/Szlovákia),"",
horv,"Horvátnádalja",megállóhely,"Körmend külső",47.005218:16.543746
hope,"Hosszúberek-Péteri",megállóhely,"",47.370322:19.390219
hoha,"Hosszúhát",állomás,"",47.235618:21.10193
hohe,"Hosszúhetény",megszűnt megállóhely,"",46.135024:18.366356
hoho,"Hosszúhomok",megszűnt megállóhely,"",
hopa,"Hosszúpályi",megszűnt állomás,"",47.399482:21.729167
hopr,"Hosszúpereszteg",megszűnt állomás,"",47.083791:17.033102
hrac,"Hrachovo",(Felvidék/Szlovákia),"Rimaráhó",
hrho,"",(Felvidék/Szlovákia),"",
hrkl,"",(Felvidék/Szlovákia),"",
hugy,"Hugyag",megállóhely,"",
hung,"Hungaroring",,"",
whun,"Hunyadi út",megszűnt kisvasúti állomás,"",
whue,"Huszárokelőpuszta",megszűnt kisvasúti,"",
hutn,"",(Felvidék/Szlovákia),"",
whuv,"Hűvösvölgy",kisvasúti állomás,"",47.541254:18.963595
wibr,"Ibrány",megszűnt kisvasúti,"",
wibt,"Ibrány temető",megszűnt kisvasúti,"",
igri,"Igrici",megszűnt megállóhely,"",47.863903:20.92214
ihas,"Ihász",megszűnt állomás,"",
ikla,"Iklad-Domony",állomás,"",47.65824:19.444052
iklf,"Iklad-Domony felső",megállóhely,"",47.667762:19.428446
iklo,"Iklódbördőce",megállóhely,"",46.603198:16.603521
wikl,"Iklódbördőce temető",kisvasúti,"",
ikre,"Ikrény",,"",47.657648:17.52306
illa,"Illava",(Felvidék/Szlovákia),"Ilava",
illf,"Illésfalva",megszűnt (Felvidék/Szlovákia),"",
wilk,"Ilona kanyar",megszűnt kisvasúti,"",
ilob,"Ilonabánya",megszűnt megállóhely,"",
ilon,"Ilonaszállás",megszűnt megállóhely,"",46.591559:19.781975
ilot,"Ilonatelep",,"",
wina,"Inám",megszűnt kisvasúti állomás,"",
wiaa,"Inám alsó",megszűnt kisvasúti megállóhely,"",
inan,"Ináncs",megállóhely,"",48.289259:21.053529
inak,"Inárcs-Kakucs",megállóhely,"",47.24711:19.317731
inas,"Inárcsi szőllőtelep",megszűnt megállóhely,"",47.264652:19.294786
inot,"Inota",megállóhely,"",47.197357:18.171196
ipbe,"Ipolybél",(Felvidék/Szlovákia),"Bielovce",
ipbz,"Ipolyberzence",állomás (Felvidék/Szlovákia),"Breznička",
ipga,"Ipolygalsa",(Felvidék/Szlovákia),"Holiša",
ippa,"Ipolypásztó-Vámosmikola",(Felvidék/Szlovákia),"Pastovce, Ipolypásztó",
ipsa,"Ipolyság",állomás,"Šahy",48.059221:18.956736
ipsk,"Ipolyszakállos",(Felvidék/Szlovákia),"Ipeľský Sokolec",
ipse,"Ipolyszele",(Felvidék/Szlovákia),"Zelené",
ipsz,"Ipolyszög",megállóhely,"",48.054607:19.223943
ipta,"Ipolytarnóc",állomás,"",48.236618:19.629149
ipve,"Ipolyvece",megállóhely,"",
ipvi,"Ipolyvisk",(Felvidék/Szlovákia),"Vyškovce nad Ipľom",
wire,"Iregszemcse",megszűnt kisvasúti állomás,"",
isas,"Isaszeg",állomás,"",47.535128:19.390149
wiku,"Iskola keresztút",megszűnt kisvasúti,"",
wiso,"Istállóskő-Ősemberbarlang feljáró",megszűnt kisvasúti állomás,"",
isvh,"Istvánháza",megszűnt megállóhely,"",
wist,"Istvánmajor",megszűnt kisvasúti,"",
istv,"Istvántelek",megállóhely,"Rákospalota főműhely, Landler Jenő Járműjavító",47.550337:19.106359
ivac,"Ivacs",megállóhely,"",47.64185:19.274211
ivan,"Iván",megszűnt állomás,"",47.447602:16.921665
wiva,"Ivánbattyán",megszűnt kisvasúti,"",
ivca,"Iváncsa",állomás,"Iváncsa-Ferencmajor",47.177812:18.812055
wivs,"Ivánszőlős",megszűnt kisvasúti állomás,"",
izsa,"Izsák",megszűnt állomás,"",46.811803:19.341501
izso,"Izsófalva",megszűnt megállóhely,"Disznóshorvát",
jabl,"Jablánc",állomás (Felvidék/Szlovákia),"Jablonica",
jabo,"",(Felvidék/Szlovákia),"",
jabt,"",(Felvidék/Szlovákia),"",
wjaj,"Jajhalom",megszűnt kisvasúti,"",
jakb,"Ják-Balogunyom",állomás,"Kisunyom",47.161358:16.630266
wjak,"Jakabszállás",megszűnt kisvasúti,"",46.766227:19.604574
wjaf,"Jakabszállás felső",kisvasúti,"",46.780154:19.615585
wjat,"Jakabszállási tanyák",megszűnt kisvasúti megállóhely,"",46.727779:19.628203
jako,"Jákó-Nagybajom",állomás,"",
jaks,"Jaksorpart",megszűnt megállóhely,"Jaksorparti tanyák",46.797623:20.302885
wjah,"Jakushegy",megszűnt kisvasúti megállóhely,"",
jaln,"Jálna",(Felvidék/Szlovákia),"Jalná",
jalo,"",(Felvidék/Szlovákia),"",
wjal,"Jalsoviczky-tanya",megszűnt kisvasúti megállóhely,"",
jamb,"Jámborhalom",megszűnt megállóhely,"",
jank,"Jánkmajtis",megállóhely,"",47.942136:22.65707
jant,"Jankovich-telep",megszűnt megállóhely,"",
jnhm,"Jánoshalma",állomás,"",46.292987:19.3309
jnhz,"Jánosháza",állomás,"",47.11576:17.171776
wjnh,"Jánoshegy",kisvasúti állomás,"",47.514868:18.950914
janh,"Jánoshegy SK",(Felvidék/Szlovákia),"Kremnické Bane",
jani,"Jánosi",(Felvidék/Szlovákia),"Rimavské Janovce",
wjan,"Jánoska",kisvasúti,"",47.808667:19.933373
jnso,"Jánossomorja",állomás,"Mosonszentjános",47.789058:17.137584
jnsz,"Jánosszállás",megállóhely,"",
jast,"",(Felvidék/Szlovákia),"",
jaap,"Jászapáti",állomás,"",47.513611:20.155235
jaar,"Jászárokszállás",állomás,"",47.63607:19.97018
jabe,"Jászberény",állomás,"",47.495536:19.89255
jaja,"Jászboldogháza-Jánoshida",állomás,"Jánoshida-Boldogháza",47.36747:20.000986
jado,"Jászdózsa",megállóhely,"",47.562809:20.028464
jadr,"Jászdózsa régi",megszűnt állomás,"",
jafe,"Jászfényszaru",állomás,"",47.593101:19.754154
wjje,"Jászkarajenő",megszűnt kisvasúti állomás,"",
wjjf,"Jászkarajenő felső",megszűnt kisvasúti megállóhely,"Lipthay-tanya",
wjjt,"Jászkarajenő Templom tér",megszűnt kisvasúti megállóhely,"",
jaki,"Jászkisér",állomás,"",47.455971:20.203574
jakf,"Jászkisér felső",megállóhely,"",47.438186:20.202446
jala,"Jászladány",állomás,"",47.372943:20.158617
jaso,"Jászó",megszűnt (Felvidék/Szlovákia),"Jasov",
jasl,"Jászszentlászló",állomás,"",46.566327:19.753753
jaze,"",(Felvidék/Szlovákia),"",
jeke,"Jekelfalva",(Felvidék/Szlovákia),"Jaklovce",
jele,"",(Felvidék/Szlovákia),"",
jelv,"",(Felvidék/Szlovákia),"",
jels,"",(Felvidék/Szlovákia),"",
wjen,"Jenői",megszűnt kisvasúti megállóhely,"",
jesu,"",(Felvidék/Szlovákia),"",
jobb,"Jobbágyi",megállóhely,"Jobbágy",47.829015:19.68745
wjou,"Jókai u.",megszűnt kisvasúti,"",
joku,"Jókút",állomás (Felvidék/Szlovákia),"Kúty",
jolv,"Jolsva",(Felvidék/Szlovákia),"Jelšava",
jols,"Jolsva-Tapolca",(Felvidék/Szlovákia),"Jelšavská Teplica, Jolsvatapolcza",
josv,"Jósvafő-Aggtelek",állomás,"Szin",48.489769:20.693834
jovi,"",(Felvidék/Szlovákia),"",
jzsa,"Józsa",megállóhely,"",47.600485:21.584673
jzst,"József Attila-telep",,"",
jzss,"József Szanatórium",megállóhely,"",46.704689:21.332857
jozf,"Józsefgőzfürész",(Felvidék/Szlovákia),"Turček",
wjom,"Józsefmajor",megszűnt kisvasúti megállóhely,"",
wjoz,"Józsefmajor BGV",megszűnt kisvasúti megállóhely,"",
wjfm,"Józsefmajor GV",megszűnt kisvasúti,"",
wjum,"Juliskamajor",megszűnt kisvasúti megállóhely,"",
jure,"Jurenák-major",megszűnt megállóhely,"",
just,"Justhmajor",megállóhely,"",46.619582:20.616441
kaba,"Kaba",állomás,"",
kabo,"Kabókapuszta",megszűnt megállóhely,"",46.895479:18.265811
kaca,"Kacagópuszta",(Felvidék/Szlovákia),"Orávka",
kadk,"Kadarkút",megszűnt állomás,"",
kada,"Kádárta",megállóhely,"",47.125892:17.953301
wkdk,"Kadocsa kitérő",megszűnt kisvasúti megállóhely,"Fáskert",
kajd,"Kajdacs",megszűnt megállóhely,"",
kaks,"Kákás forgalmi kitérő",megszűnt szolgálati hely,"",
kaka,"Kakasszék",megszűnt megállóhely,"Kakasszékfürdő, Kakasszéki gyógyintézet",46.530588:20.593628
kakc,"Kákics",megállóhely,"",45.904782:17.852301
kalk,"Kál-Kápolna",állomás,"",47.734101:20.254031
kald,"Káld",megszűnt állomás,"",47.158804:17.052517
kall,"Kállósemjén",állomás,"",47.854453:21.934992
kalm,"Kálmáncsa",megszűnt állomás,"",
karm,"Kálmánd",megszűnt (Románia/Erdély),"",
kalf,"Kálmánfalva",(Felvidék/Szlovákia),"Kamanová",
klno,"Kálnó",(Felvidék/Szlovákia),"Kalinovo",
kalo,"Kalocsa",megszűnt állomás,"",46.534851:18.994757
kaln,"Kalonda",megszűnt megállóhely (Felvidék/Szlovákia),"",48.258687:19.659871
wklz,"Kálóz",megszűnt kisvasúti állomás,"",
wklb,"Kálózbelmajor",megszűnt kisvasúti megállóhely,"",
wkmh,"Kámaháza",kisvasúti,"",46.560469:16.721567
kamr,"Kamaráserdő",megszűnt (Szerbia),"",
kamo,"Kámon",megállóhely,"",47.2543:16.625881
kani,"Kanizsavár",megszűnt állomás,"",
kant,"Kántorhalom",megszűnt megállóhely,"",
wkny,"Kányavár",kisvasúti,"",46.568591:16.680327
kano,"",kisvasúti (Felvidék/Szlovákia),"",
kapi,"Kapitányság",megállóhely,"",
kapo,"Kápolna",megszűnt megállóhely,"",
wkap,"Kápolnadűlő",kisvasúti,"",
kapn,"Kápolnásnyék",állomás,"",47.245411:18.692727
kapl,"Kapoly",állomás,"",46.713552:17.977749
kpda,"Kaposdada",megszűnt megállóhely,"",
kpfo,"Kaposfő",megállóhely,"",
kpfu,"Kaposfüred",állomás,"",46.414917:17.75936
kpgy,"Kaposgyarmat-Hajmás",megszűnt megállóhely,"",46.279731:17.893197
kpho,"Kaposhomok",megállóhely,"",46.367352:17.921812
kpme,"Kaposmérő",állomás,"",46.365397:17.699605
kppu,"Kapospula",megállóhely,"",46.373064:18.096844
kpsk,"Kaposszekcső",megállóhely,"",46.330948:18.143083
kpsj,"Kaposszentjakab",megállóhely,"Kaposvár-Közvágóhíd",46.356607:17.820126
kptu,"Kapostüskevár",megállóhely,"Kaposvár-Tüskevári vásártér, Kaposvár-Textilművek",46.365967:17.774232
kpuj,"Kaposújlak",megállóhely,"",
kpva,"Kaposvár",állomás,"",46.35278:17.795183
kapt,"Káptalanfüred",megállóhely,"Káptalanfürdő",
kapu,"Kapuvár",állomás,"",47.581985:17.047866
wkpb,"Kapuvár Belsőmajor",megszűnt kisvasúti állomás,"",
wkpg,"Kapuvár Garta",megszűnt kisvasúti állomás,"",
krcs,"Karácsond",megállóhely,"",47.717078:20.045007
kars,"Karácsony Sándor utca",megállóhely,"",47.426789:19.067304
kara,"Karád",állomás,"",46.681094:17.874884
krks,"Karakószörcsök",megállóhely,"",47.133626:17.288209
karn,"Karancs",megszűnt megállóhely (Horvátország),"",
krko,"Kárász-Köblény",megszűnt megállóhely,"",
wkrm,"Kárászmegyer",megszűnt kisvasúti megállóhely,"",
kras,"Karásznó",(Felvidék/Szlovákia),"Krásno nad Kysucou",
karc,"Karcag",állomás,"",47.303283:20.929028
kari,"Karcag-Ipartelep",megállóhely,"",
karv,"Karcag-Vásártér",állomás,"",
karp,"Karcagi puszta",megszűnt megállóhely,"",
kard,"Kardoskút",állomás,"",46.498206:20.697604
karr,"Kardosrét",megszűnt megállóhely,"",
wkad,"Károlyderéki elágazás",megszűnt kisvasúti,"",
wkaf,"Károlyfalva",megszűnt kisvasúti megállóhely,"",
wkam,"Károlyi Mihály-telep",megszűnt kisvasúti megállóhely,"",
wkas,"Kaskantyú",megszűnt kisvasúti,"",46.670782:19.38985
wkst,"Kaskantyúi tanyák",kisvasúti,"",46.682477:19.408076
kass,"Kassa",állomás (Felvidék/Szlovákia),"Košice",
kase,"Kassa-Erzsébetváros",megállóhely (Felvidék/Szlovákia),"Košice predmestie",
kasm,"Kassamindszent",(Felvidék/Szlovákia),"Valaliky",
wknc,"Kastély (Nagycenk)",kisvasúti állomás,"",47.610872:16.705608
kasd,"Kastélyosdombó",megszűnt megállóhely,"",
wkpe,"Kaszaper",megszűnt kisvasúti állomás,"Kaszaperpuszta alsó",
wkpi,"Kaszaperi iskola",megszűnt kisvasúti megállóhely,"Montágmajor",
wkpt,"Kaszaperi tanyák",megszűnt kisvasúti megállóhely,"",
wkpp,"Kaszaperpuszta felső",megszűnt kisvasúti megállóhely,"",
kasz,"Kaszásdűlő",megállóhely,"Köles utca",47.556884:19.045306
wksz,"Kaszó",kisvasúti állomás,"",46.317329:17.220872
wksn,"Kászonyi megálló",megszűnt kisvasúti megállóhely,"",
kata,"Katalinhuta",állomás (Felvidék/Szlovákia),"Katarínska Huta",
wktd,"Katódfa",megszűnt kisvasúti,"",
kato,"Katonatelep",állomás,"",46.963193:19.718949
katv,"",(Felvidék/Szlovákia),"",
katr,"Katraszél",megszűnt megállóhely,"",
katy,"Katymár",megszűnt,"",
katt,"Katymári Téglagyár",megszűnt megállóhely,"",
katz,"",(Ausztria),"",
wkae,"Kavicsbánya elágazás",megszűnt kisvasúti állomás,"",
kazi,"Kazincbarcika",állomás,"Barcika",48.264167:20.628373
kaza,"Kazincbarcika alsó",megállóhely,"Sajókazinc",48.254792:20.649916
kcel,"Kecel",megszűnt állomás,"",46.552468:19.242066
kcsz,"Kecel-Szilos",megszűnt megállóhely,"",
kcsd,"Kecskéd",megszűnt megállóhely,"",47.530061:18.298277
kcsa,"Kecskéd alsó",megállóhely,"",47.520801:18.317028
kcke,"Kecskemét",állomás,"",46.913664:19.700776
kcal,"Kecskemét alsó",állomás,"",46.895708:19.692237
wkkk,"Kecskemét KK",megszűnt kisvasúti állomás,"",46.892883:19.685769
kcma,"Kecskemét-Máriaváros",állomás,"",46.901285:19.675763
kckp,"Kecskemét-Parasztfőiskola",megszűnt megállóhely,"",46.8918:19.720471
kecc,"Kecskéscsárda",megszűnt megállóhely,"",
kehi,"Kehida-Kustány",megszűnt állomás,"",46.833753:17.105836
kek_,"Kék",megállóhely,"",48.0933:21.883959
kekt,"Kéktó",megszűnt megállóhely,"",47.337505:19.041796
kele,"Kelebia",állomás,"",
kelt,"Kelebiai tanyák",megszűnt megállóhely (Szerbia),"",
keln,"Kelenc",megszűnt megállóhely,"",
bukf,"Kelenföld",állomás,"Újbuda, Budapest-Kelenföld",47.465029:19.021463
keli,"Kelenföld-Ipartelepek",megszűnt teherpályaudvar,"",
keme,"Kemecse",állomás,"",48.065407:21.801639
wkem,"Kemence",kisvasúti állomás,"",48.013587:18.894193
wkmp,"Kemencepatak",kisvasúti megállóhely,"",
kemn,"Kéménd",(Felvidék/Szlovákia),"Kamenín",
kemd,"Kemendollár",megállóhely,"",46.905739:16.94656
kemm,"Kemenesmihályfa",,"",47.278953:17.109082
kemp,"Kemenespálfa",megállóhely,"",47.139284:17.182945
kemu,"Kemenespuszta",megszűnt megállóhely,"",47.359299:17.125151
kems,"Kémes",megszűnt állomás,"",
kenu,"Kén utca",,"",
kend,"Kenderes",állomás,"",
kens,"Kenderessziget",megszűnt megállóhely,"",
wkef,"Kenderföldek",megszűnt kisvasúti megállóhely,"",
wkeg,"Kendergyár",megszűnt kisvasúti,"",
wken,"Kenézlő",megszűnt kisvasúti állomás,"",
wket,"Kenézlői Tisza-part",megszűnt kisvasúti állomás,"",
keng,"Kengyel",állomás,"Pusztakengyel",47.089876:20.33988
wkng,"Kengyel GV",megszűnt kisvasúti megállóhely,"",
keny,"Kenyeri",megszűnt állomás,"Kenyeri-Rábakecskéd",47.387353:17.090843
kenh,"Kenyhec",megállóhely (Felvidék/Szlovákia),"Kechnec, Abaújvár-Kenyhec",
kere,"Kerekdomb",megállóhely,"",46.902446:20.046576
kerh,"Kerekegyháza",megszűnt állomás,"",
kera,"Kerekegyháza alsó",megszűnt megállóhely,"Mócártelep",
wkrc,"Kerekes- és Csete-tanyák",megszűnt kisvasúti megállóhely,"",
wkrs,"Kereksziget",megszűnt kisvasúti,"",
kerp,"Kerepes",,"",
krpu,"Keresztespuszta",megszűnt megállóhely,"Keménygadány-Keresztespuszta",
kerk,"Kerkaszabadhegy",megszűnt (Szlovénia),"",
kert,"Kerta",állomás,"",47.151456:17.238396
wkrz,"Kertészsziget",megszűnt kisvasúti,"",
wkes,"Keselyűs",kisvasúti,"",
kesf,"Keszegfalva",(Felvidék/Szlovákia),"Kameničná",
khgy,"Keszőhidegkút-Gyönk",állomás,"",46.597287:18.426395
kszh,"Keszthely",állomás,"",46.758292:17.247848
kszr,"Keszthely régi",megszűnt állomás,"",46.757758:17.243619
kteh,"Kétegyháza",állomás,"",46.532601:21.171828
ktet,"Kétegyházi tanyák",megszűnt megállóhely,"",
wkrk,"Kétérköz",megszűnt kisvasúti megállóhely,"",
ktha,"Kéthalom",megszűnt megállóhely,"",47.001006:21.001251
kthe,"Kéthely",megszűnt állomás,"",46.64558:17.411481
ktpo,"Kétpó",megállóhely,"Kispó, Kétpó tanácsháza",47.077021:20.487835
ktth,"Kettőshalom",megállóhely,"",46.688976:20.021041
ktuj,"Kétújfalu",megszűnt megállóhely,"Kétújfalu-Szentmihályfapuszta",
ktut,"Kétútköz",megállóhely,"",47.694375:20.564497
wkve,"Kevermes",megszűnt kisvasúti állomás,"",
wkvk,"Kevermes kavicsbánya",megszűnt kisvasúti megállóhely,"",
wkvp,"Kevermes puszta",megszűnt kisvasúti megállóhely,"",
wkvs,"Kevermes Széchenyi út",megszűnt kisvasúti megállóhely,"",
wkvl,"Kevermes szőlők",megszűnt kisvasúti megállóhely,"",
wkvt,"Kevermesi tanyák",megszűnt kisvasúti megállóhely,"",
kili,"Kilimán",megállóhely,"",
kiml,"Kimle",állomás,"Horvátkimle",47.804516:17.341857
kinc,"Kincsesbánya",megszűnt állomás,"",
wkiu,"Kinizsi u.",megszűnt kisvasúti,"",
kino,"Kinorány",(Felvidék/Szlovákia),"Chynorany",
kira,"Királd",megszűnt megállóhely,"",48.244301:20.379962
kirr,"Királyegyháza-Rigópuszta",megállóhely,"Királyegyháza-Gusztávműve",45.989422:17.972253
wkhe,"Királyhelmec",megszűnt kisvasúti állomás (Felvidék/Szlovákia),"",
kirm,"Királymajor",(Felvidék/Szlovákia),"Šajdikove Humence",
kirn,"Királynérét",(Felvidék/Szlovákia),"Kráľka",
wkir,"Királyrét",kisvasúti állomás,"",47.893898:18.979138
wkia,"Királyrét alsó",kisvasúti,"",
kanl,"Kisandacs-Lakács",(Felvidék/Szlovákia),"Andač",
ksba,"Kisbárapáti",állomás,"",46.614999:17.866792
ksbe,"Kisbér",állomás,"",47.494221:18.024914
wkbo,"Kisbócsa",kisvasúti,"",46.648028:19.380853
wkbz,"Kisbózsva",megszűnt kisvasúti megállóhely,"",
ksca,"Kiscsákó",megállóhely,"",46.719239:20.717631
kcep,"Kiscsepcsény",(Felvidék/Szlovákia),"Malý Čepčín",
kscp,"Kiscséripuszta",állomás,"",47.04806:18.354936
ksdo,"Kisdobsza",megállóhely,"",46.011974:17.667102
ksfa,"Kisfái",megállóhely,"",46.888373:19.807295
ksft,"Kisfástanya",megállóhely,"",
kgar,"Kisgaram",(Felvidék/Szlovákia),"Hronec",
ksgy,"Kisgyócs",megszűnt megállóhely,"",
ksha,"Kishagymás",megszűnt megállóhely,"",
ksho,"Kishomok",megszűnt megállóhely,"",
wkhu,"Kishuta",kisvasúti megállóhely,"",48.457337:21.482553
wkic,"Kisirtás-Csúcsfordító",kisvasúti megállóhely,"",
wksi,"Kisiváni tároló",megszűnt kisvasúti,"",
wkiv,"Kisivánszék",megszűnt kisvasúti megállóhely,"",
wkja,"Kisjakabfalva",megszűnt kisvasúti,"",
kjen,"Kisjenő-Erdőhegy",állomás (Románia/Erdély),"Pădureni Arad",46.511978:21.503677
kska,"Kiskapud",megszűnt megállóhely,"",48.21703:20.346252
wkka,"Kiskassa",megszűnt kisvasúti állomás,"",
kskp,"Kiskorpád",állomás,"",
ksko,"Kiskőrös",állomás,"",46.626185:19.297424
wkko,"Kiskőrös KK",kisvasúti,"",
wksu,"Kiskőrösi út",megszűnt kisvasúti,"",46.840725:19.624397
ksks,"Kiskőszeg",megszűnt állomás (Horvátország),"",
kskd,"Kiskundorozsma",állomás,"",46.271303:20.090884
kskf,"Kiskunfélegyháza",állomás,"",46.707068:19.834302
kkhu,"Kiskunfélegyházi határút",megszűnt megállóhely,"",
ksku,"Kiskunfélegyházi út",megszűnt megállóhely,"",46.856661:19.735693
kskh,"Kiskunhalas",állomás,"",46.433791:19.493869
kskl,"Kiskunlacháza",állomás,"",47.18497:19.043663
kskm,"Kiskunmajsa",állomás,"",46.501692:19.727708
wkkm,"Kiskunmajsa KK",megszűnt kisvasúti állomás,"",46.504957:19.725187
wkku,"Kiskunmajsai út",megszűnt kisvasúti megállóhely,"",
kskr,"Kisköre",állomás,"",47.495402:20.481543
kskt,"Kisköre-Tiszahíd",megállóhely,"",
ksmc,"Kismacs",megszűnt megállóhely,"",
kman,"Kismánya",(Felvidék/Szlovákia),"Malá Maňa",
ksmg,"Kismargita",megszűnt megállóhely,"Káptalanpuszta",
ksmr,"Kismarja",állomás,"",47.243917:21.813949
ksma,"Kismaros",megállóhely,"",47.827353:19.010864
wkma,"Kismaros ÁEV",kisvasúti állomás,"",47.827739:19.013342
ksmt,"Kismarton",állomás (Ausztria),"Eisenstadt",
ksme,"Kismegyer",megszűnt megállóhely,"",
kmic,"Kismicske",megszűnt megállóhely,"",
ksmu,"Kismindszenti út",megállóhely,"",46.753668:19.88794
wknm,"Kisnamény",megszűnt kisvasúti állomás,"",
ksne,"Kisnémedi",megszűnt megállóhely,"",47.724234:19.265102
wksp,"Kispáhi",kisvasúti,"",
kspe,"Kispest",állomás,"",47.44791:19.157352
ksrp,"Kisrépény",(Felvidék/Szlovákia),"Malé Ripňany",
wkso,"Kissor",megszűnt kisvasúti állomás,"",
kssb,"Kisszabadka",(Horvátország),"Mala Subotica",
kssa,"Kisszállás",állomás,"",46.27877:19.538688
kssk,"Kisszekeres",megállóhely,"",47.965881:22.629821
kssn,"Kisszénás",állomás,"",46.751173:20.721542
wkpl,"Kisszentpál puszta",megszűnt kisvasúti állomás,"",
ktap,"Kistapolca",megszűnt állomás,"",
ktac,"Kistapolcsány",megszűnt állomás (Felvidék/Szlovákia),"Topoľčianky",
ksta,"Kistarcsa",,"",
ksth,"Kistarcsa Kórház",,"",
kstl,"Kistelek",állomás,"",46.467051:19.96693
ksts,"Kisteleki szőlők",megállóhely,"",46.514256:19.928567
kstr,"Kisterenye",állomás,"",48.009592:19.831934
kstb,"Kisterenye-Bányatelep",megállóhely,"",48.0236:19.830687
kstj,"Kistokaj",megszűnt megállóhely,"",48.03113:20.828535
kstk,"Kistőke",megállóhely,"",
wkto,"Kistolmács",kisvasúti,"",46.503263:16.739101
ktom,"Kistompa",megszűnt (Felvidék/Szlovákia),"Tupá",
kstf,"Kistótfalu",megállóhely,"",45.909475:18.315585
wktf,"Kistölgyfa",megszűnt kisvasúti állomás,"",
ksuf,"Kisújfalu",(Felvidék/Szlovákia),"Nová Vieska",
ksuj,"Kisújszállás",állomás,"",
ksvc,"Kisvác",megállóhely,"",47.795354:19.113747
ksvr,"Kisvárda",állomás,"",48.208961:22.07895
ksvh,"Kisvárda-Hármasút",megállóhely,"",48.228284:22.091842
ksvo,"Kisvárdai szőlők",megszűnt megállóhely,"",
ksvs,"Kisvarsány",megállóhely,"",48.151763:22.290188
kszo,"Kiszombor",állomás,"",46.192112:20.413617
kszm,"Kiszombor megálló",megállóhely,"",46.19102:20.43063
kzuc,"Kiszucaújhely",(Felvidék/Szlovákia),"Kysucké Nové Mesto",
kozo,"Kisözörény",(Felvidék/Szlovákia),"Gemerská Hôrka zastávka",
kite,"Kitérőgyár",megállóhely,"",47.766556:19.935271
klab,"Klábertelep",állomás,"",47.006085:19.551361
klar,"Klárafalva",megszűnt megállóhely,"",46.204195:20.317151
klem,"Klementina",megszűnt megálló-rakodóhely,"",
wkle,"Klemimajor",megszűnt kisvasúti állomás,"",
klco,"",(Felvidék/Szlovákia),"",
klot,"Klotildliget",megállóhely,"Piliscsaba alsó",47.637772:18.84641
knez,"Knézits Károly út",megszűnt megállóhely,"Festetich út",
koba,"Kőbánya alsó",megállóhely,"",47.48298:19.127084
kobf,"Kőbánya felső",állomás,"",47.491949:19.133455
kobh,"Kőbánya-Hízlaló",megszűnt állomás,"",
kobk,"Kőbánya-Kispest",állomás,"",47.463949:19.149553
kobt,"Kőbánya-Teher",teherpályaudvar,"",
koci,"",(Felvidék/Szlovákia),"",
wkoc,"Kocsistanya",megszűnt kisvasúti,"",46.743901:19.617352
kocl,"Kocsola",megszűnt megállóhely,"",46.52354:18.195437
kocd,"Kocsord",megállóhely,"",47.94201:22.375746
koca,"Kocsord alsó",állomás,"",47.946349:22.401441
koha,"Koháryháza",(Felvidék/Szlovákia),"Pohorelá",
kohk,"Kohárykertek",megszűnt megállóhely,"",
kohg,"Kőhídgyarmat",(Felvidék/Szlovákia),"Kamenný Most nad Hronom",
wkok,"Kőkapu",kisvasúti,"Kőkapu-üdülő",48.426608:21.439816
kokl,"",(Felvidék/Szlovákia),"",
koku,"Kőkútpuszta",megszűnt megállóhely,"",
wkkp,"Kőkútpuszta GV",megszűnt kisvasúti megállóhely,"",
kolo,"Kolontár",megállóhely,"",47.089206:17.476872
komi,"Komádi",megszűnt állomás,"",46.976169:21.491358
kmrc,"Komaróc",(Felvidék/Szlovákia),"Komárovce",
komr,"Komárom",állomás,"Komárom déli pu.",47.749664:18.114273
revk,"Komárom északi pu.",állomás (Felvidék/Szlovákia),"Újkomárom, Komárno",47.769085:18.125401
kmfo,"Komárom földmíves iskola",(Felvidék/Szlovákia),"Komárno závody",
kmdp,"Komárom-Dunapart",megszűnt megállóhely,"",
kmdr,"Komárom-Rendező",teherpályaudvar,"Komárom-Dunaparti Rendező",
kmja,"Komját",(Felvidék/Szlovákia),"Komjatice",
komj,"Komjáti",megállóhely,"",48.546211:20.75649
koml,"Komló",állomás,"",46.189062:18.265333
wkms,"Komló szálló",megszűnt kisvasúti,"",
komt,"Komló-Teher",teherpályaudvar,"",
komv,"Komlósi-völgy",megszűnt kisvasúti megállóhely,"",
komo,"Komoró",állomás,"",48.305066:22.118202
wknd,"Konda",megszűnt kisvasúti megállóhely,"",
wkod,"Kondó",megszűnt kisvasúti állomás,"",
kond,"Kondoros",megszűnt állomás,"",46.755628:20.79073
wknt,"Konta",megszűnt kisvasúti,"",
kony,"Kóny",állomás,"",47.632716:17.358918
knya,"Kónya",megállóhely,"",47.600698:21.23764
knyr,"Konyár",állomás,"",47.323592:21.666169
knys,"Konyári Sóstófürdő",megállóhely,"",47.324091:21.74545
knsz,"Kónyaszék",megállóhely,"",46.695024:20.059713
konh,"Konyha",(Felvidék/Szlovákia),"Kuchyňa",
knyd,"Konyhadűlő",megszűnt megállóhely,"",
kopa,"Kopáncs",megszűnt állomás,"",
kops,"Kopcsány",(Felvidék/Szlovákia),"Kopčany",
koph,"Kópháza",megállóhely,"Kópháza-Balf",47.632653:16.637017
kply,"Kopolya",megszűnt megállóhely,"",
kopo,"Koportos",megszűnt megállóhely,"",
korh,"Korhánköz",megszűnt megállóhely,"",
wkrh,"Kórház",megszűnt kisvasúti,"",
korl,"Korlát-Vizsoly",megállóhely,"",48.36474:21.219187
korg,"Korogy",megszűnt megállóhely,"",
koro,"Kórógyszentgyörgy",megállóhely,"",46.564332:20.225143
wkrn,"Koroncó",megszűnt kisvasúti állomás,"",
wkor,"Kőrózsa",kisvasúti megállóhely,"",48.001463:18.897873
korp,"Korpona",megszűnt (Felvidék/Szlovákia),"Krupina",
kosw,"Kós",(Felvidék/Szlovákia),"Koš",
kost,"Kossuth tér",megszűnt megállóhely,"",
wksg,"Kossuth tér GV",megszűnt kisvasúti,"",
kstv,"",(Felvidék/Szlovákia),"",
ksty,"Kostyán",(Felvidék/Szlovákia),"Košťany nad Turcom",
kszg,"Kőszeg",állomás,"",47.381514:16.556783
kszs,"Kőszeg-Sörgyár",megszűnt megállóhely,"",
kszf,"Kőszegfalva",megállóhely,"",47.361775:16.567451
kszt,"Kősziget",megszűnt megállóhely,"",46.990596:20.899096
wkot,"Kótaj",megszűnt kisvasúti állomás,"",
wkos,"Kótaji szeszgyár",megszűnt megállóhely,"",
koto,"Kotor-Alsódomború",(Horvátország),"Kotoriba",
kotp,"Kótpuszta",megszűnt állomás,"",46.959406:21.335011
kohi,"Kovácshida",megszűnt megállóhely,"",
kovc,"Kovácsi mocsár",(Felvidék/Szlovákia),"Kozárovce zastávka",
kovm,"Kovácsműhely",megállóhely,"",
kove,"Kővágóér",megszűnt megállóhely,"",
kose,"",(Felvidék/Szlovákia),"",
wkri,"Krinolin kert",megszűnt kisvasúti,"",
krif,"Kristóffalva",megszűnt megállóhely (Horvátország),"",
krig,"Krivány-Gyetva",(Felvidék/Szlovákia),"Kriváň",
krup,"",megszűnt (Felvidék/Szlovákia),"",
kukl,"Kukló-Csári",(Felvidék/Szlovákia),"Kuklov",
kulc,"Kulcs",megállóhely,"",47.051066:18.897723
wkgf,"Kunágota felső",megszűnt kisvasúti megállóhely,"",
wkgp,"Kunágota posta",megszűnt kisvasúti megállóhely,"",
wkgr,"Kunágota rakodó",megszűnt kisvasúti megállóhely,"",
wkgs,"Kunágota Széchenyi út",megszűnt kisvasúti megállóhely,"",
wkgt,"Kunágota tanácsháza",megszűnt kisvasúti megállóhely,"",
wkub,"Kunbaja",megszűnt kisvasúti állomás,"",
knba,"Kunbaja-Bácsalmási szőlők",megszűnt,"",
knfe,"Kunfehértó",állomás,"",
kngy,"Kungyalu",megállóhely,"Almássymajor",46.908325:20.267924
knga,"Kungyalu alsó",megállóhely,"Gyalupuszta",46.88201:20.269458
wkuh,"Kunhalom",megszűnt kisvasúti állomás,"",
knhe,"Kunhegyes",állomás,"",47.376701:20.640601
knma,"Kunmadaras",állomás,"",
knsa,"Kunszállás",megállóhely,"Kiskunfélegyházi Jakabszállás",46.781049:19.768652
knse,"Kunszentmárton",állomás,"",46.848309:20.293459
knsp,"Kunszentmárton-Érpart",megállóhely,"",46.831119:20.29854
knta,"Kunszentmiklós-Tass",állomás,"",47.014807:19.099994
kntp,"Kuntapolca",(Felvidék/Szlovákia),"Kunova Teplica",
kurd,"Kurd",állomás,"Kurd-Csibrák",46.450265:18.31837
wkup,"Kuriapuszta",megszűnt kisvasúti,"",
kuta,"Kutas",megállóhely,"",
kutp,"Kutasi puszta",megszűnt megállóhely,"",
wkut,"Kutitanya",kisvasúti,"",46.636477:19.330101
kutv,"Kútvölgy",állomás,"Kútvölgyi gyógyintézet",46.459384:20.452029
kvez,"",megállóhely (Felvidék/Szlovákia),"",
kull,"Küllőd",megszűnt megállóhely (Szerbia),"",
kmep,"Külsőmezőhegyespuszta",megszűnt megállóhely,"",46.281242:20.780468
kuls,"Külsővat",állomás,"",
kung,"Küngös",megszűnt megállóhely,"",
kutr,"Kürt",(Felvidék/Szlovákia),"Strekov",
kurt,"Kürtös",állomás (Románia/Erdély),"Curtici",
kobo,"Köbölkút",(Felvidék/Szlovákia),"Gbelce",
wkol,"Kölcse",megszűnt kisvasúti állomás,"",
kole,"Kölesd-Alsótengelic",megszűnt megállóhely,"",46.539078:18.673036
kncs,"Köncsög",megszűnt megállóhely,"",46.852749:19.52024
wkon,"Köncsögpuszta",kisvasúti megállóhely,"",46.787636:19.551871
kopc,"Köpcsény",(Ausztria),"Kittsee",
korm,"Körmend",állomás,"",47.016074:16.597384
korb,"Körmöcbánya",(Felvidék/Szlovákia),"Kremnica",
krny,"Környe",állomás,"",47.542948:18.333699
kort,"Körtés",megszűnt megállóhely (Szerbia),"",
krgy,"Körösgyéres",megszűnt (Románia/Erdély),"",
wkhi,"Köröshíd",megszűnt kisvasúti,"",
krla,"Körösladány",állomás,"",46.970064:21.085825
krnh,"Körösnagyharsány",megállóhely,"",47.013023:21.641098
krnr,"Körösnagyharsány régi",megszűnt állomás,"",47.015377:21.652807
krsz,"Körösszakál",megszűnt állomás,"",47.008264:21.605959
krsg,"Körösszeg",megszűnt (Románia/Erdély),"",
wkrt,"Köröstetétlen",megszűnt kisvasúti állomás,"",
kruj,"Körösújfalu",megszűnt megállóhely,"Ihráz",46.967614:21.39559
kote,"Kötegyán",állomás,"",46.758601:21.479553
kvec,"Kövecses",(Felvidék/Szlovákia),"Štrkovec",
wkoh,"Köveshegy",megszűnt kisvasúti megállóhely,"",
wkga,"Közép-Garadna",kisvasúti megállóhely,"",48.116924:20.572556
kzme,"Középmező",megállóhely,"",45.995904:18.669224
kzri,"Középrigóc",állomás,"",45.970482:17.524884
wmhk,"Központ",megszűnt kisvasúti megállóhely,"",46.312561:20.820143
wkpf,"Központi főmajor",kisvasúti,"",46.680463:17.499788
klac,"",(Felvidék/Szlovákia),"",
laba,"Lábatlan",állomás,"",47.752163:18.514686
labo,"Lábod",megszűnt állomás,"",
labs,"",megállóhely (Felvidék/Szlovákia),"",
neml,"Lad",megszűnt állomás,"Németlad-Gyöngyöspuszta, Lad-Gyöngyöspuszta",
ladi,"Ládi fatelep",megálló-rakodóhely,"",48.087002:20.721051
ladc,"",(Felvidék/Szlovákia),"",
lado,"Ladó",megszűnt,"",
lagy,"Lágymányosi híd",megállóhely,"",47.469735:19.070115
lajh,"Lajoshalma",(Felvidék/Szlovákia),"Ľudovítov",
wlaj,"Lajosháza",kisvasúti állomás,"",47.85896:19.935776
lajm,"Lajosmizse",állomás,"",47.028428:19.54238
laja,"Lajosmizse alsó",megállóhely,"Szent-Lajos",47.02276:19.550188
ljkt,"Lajtakáta",(Ausztria),"Gattendorf",
ljko,"Lajtakörtvélyes",(Ausztria),"Pama",
ljmi,"Lajtaszentmiklós",állomás (Ausztria),"Neudörfl",
ljuj,"Lajtaújfalu",állomás (Ausztria),"Neufeld an der Leitha",
laki,"Lakitelek",állomás,"Kisalpár",46.872949:20.003897
lako,"Lakompak",állomás (Ausztria),"Lackenbach",
welk,"Laktanya",megszűnt kisvasúti,"",
lama,"Lamacs",(Felvidék/Szlovákia),"Bratislava-Lamač",
lapi,"Lapistó",megszűnt megállóhely,"",
lask,"Laskafalu",(Horvátország),"Čeminac",
wlas,"Lassi",kisvasúti állomás,"",46.236931:18.857269
lato,"Látókép",megszűnt megállóhely,"",47.55864:21.499189
latv,"Látványtár",megállóhely,"",
laza,"Lázári",megszűnt (Románia/Erdély),"",
lazi,"Lázi",megszűnt megállóhely,"",47.470098:17.835523
lean,"Leányvár",állomás,"Leányvár-Csév",47.687499:18.772692
lebe,"Lébény-Mosonszentmiklós",állomás,"",47.755783:17.425313
lede,"Lédec",(Felvidék/Szlovákia),"Ladce",
ledn,"Lednicróna",megszűnt állomás (Felvidék/Szlovákia),"Lednické Rovne",
wleh,"Lehóczki kitérő",megszűnt kisvasúti,"",
lend,"Lendva",(Szlovénia),"Alsólendva, Lendava",
lenh,"Lendva-Hosszúfalu",megszűnt (Szlovénia),"",
leng,"Lengyeltóti",állomás,"",46.660701:17.613398
lnti,"Lenti",állomás,"",46.621249:16.529654
wlen,"Lenti ÁEV",kisvasúti,"",
wleg,"Lenti-Gyöngyvirág u.",kisvasúti,"",
lnts,"Lentiszombathely",megállóhely,"",46.611261:16.572533
wlem,"Lentiszombathely-Mumor",kisvasúti megállóhely,"",
leoz,"",megállóhely (Felvidék/Szlovákia),"",
lepp,"Leperdpuszta",megszűnt megállóhely,"",46.134284:18.694008
lepe,"Lépesfalva-Somfalva",állomás (Ausztria),"Loipersbach-Schattendorf",
leps,"Lepsény",állomás,"",46.9874:18.247486
lepf,"Lepsény felső",megszűnt megállóhely,"",
lesi,"Lesenceistvánd",megszűnt megállóhely,"",
lese,"Lesencetomaj",állomás,"",46.875718:17.378787
leta,"Létavértes",megszűnt állomás,"Nagyléta-Vértes",47.393737:21.879053
leva,"Léva",(Felvidék/Szlovákia),"Levice",
leve,"Levél",megállóhely,"",47.889817:17.192171
levm,"Levelek-Magy",megállóhely,"",47.947952:21.993687
libb,"Libetbánya",(Felvidék/Szlovákia),"Ľubietová",
lice,"Lice-Gice",(Felvidék/Szlovákia),"Hucín",
lige,"Ligettanya",megállóhely,"Majláthtelep",47.951598:22.071304
liki,"",(Felvidék/Szlovákia),"",
wlil,"Lillafüred",kisvasúti állomás,"",48.103566:20.622737
lipo,"Lipótfa",megszűnt állomás,"",
lipv,"Lipótvár",állomás (Felvidék/Szlovákia),"Leopoldov",
lipn,"",(Felvidék/Szlovákia),"",
litk,"Litke",megállóhely,"",48.215879:19.59866
litv,"Litvailló",(Felvidék/Szlovákia),"Lietavská Lúčka",
locc,"Lőcs",megszűnt megállóhely (Horvátország),"",
locs,"Locsmánd",megszűnt állomás (Ausztria),"Lutzmannsburg",47.464009:16.648842
wlok,"Lókuca",megszűnt kisvasúti megállóhely,"",
loku,"Lókút",megszűnt megállóhely,"Olaszfalu-Eplény",
loko,"Lőkösháza",állomás,"",46.432108:21.237629
lony,"Lónyabánya",(Felvidék/Szlovákia),"Lovinobaňa",
lope,"Lopér-Alsószabadi",(Felvidék/Szlovákia),"Lopej",
lora,"Lórántháza",megszűnt megállóhely,"",
lori,"Lőrinci",megállóhely,"",47.737696:19.673918
wlor,"Lőrinczy-kert",megszűnt kisvasúti megállóhely,"",
loso,"Losonc",állomás (Felvidék/Szlovákia),"Lučenec",48.336887:19.666165
lost,"Losonctamási",állomás (Felvidék/Szlovákia),"Tomášovce",
losv,"Losoncvásártér",megszűnt megállóhely,"",
wlot,"Lőtér",megszűnt kisvasúti,"",46.725715:19.449586
lova,"Lovasberény",megszűnt állomás,"",47.303869:18.559612
lovi,"",megállóhely (Felvidék/Szlovákia),"",
lozo,"Lozornó",(Felvidék/Szlovákia),"Lozorno",
lubo,"Luboka régi",megszűnt (Felvidék/Szlovákia),"",
luct,"Lucatő",(Felvidék/Szlovákia),"Lučatín",
luci,"Luciabánya",megszűnt állomás (Felvidék/Szlovákia),"Baňa Lucia",
wldd,"Ludad",megszűnt kisvasúti állomás,"",
wldp,"Ludadpuszta",megszűnt kisvasúti állomás,"",
ludh,"Ludányhalászi",megállóhely,"",48.132481:19.52946
wlut,"Ludányi tanya",megszűnt kisvasúti,"",
luds,"Ludas",állomás,"",47.723988:20.095641
wlud,"Ludastó",megszűnt kisvasúti,"",46.795882:19.57382
lujh,"Lujzahuta",(Felvidék/Szlovákia),"Polomka-Hámor",
wluj,"Lujzamajor",megszűnt kisvasúti,"",
lukh,"Lukácsháza",megállóhely,"Lukácsháza-Nemescsó",47.34077:16.580404
luka,"Lukácsháza alsó",megállóhely,"Nagycsömöte",47.326646:16.585233
wluk,"Lukafa",kisvasúti,"",
wlue,"Lukafai elágazás",kisvasúti megállóhely,"",46.197644:17.900248
luky,"",(Felvidék/Szlovákia),"",
lysa,"",(Felvidék/Szlovákia),"",
wlyb,"Lyukóbánya",megszűnt kisvasúti állomás,"",
wlya,"Lyukóbánya alsó",megszűnt kisvasúti megállóhely,"",
lovo,"Lövő",állomás,"",47.509657:16.777295
macs,"Macs",állomás,"",47.568437:21.481194
mack,"Mácsa kitérő",megszűnt (Románia/Erdély),"",
mad_,"Mád",állomás,"",48.189968:21.268799
wmat,"Madár tanya",megszűnt kisvasúti,"",
mada,"Madaras",megszűnt,"",
madp,"Madarászpuszta",megszűnt,"",
magd,"Magdolnatelep",megszűnt megállóhely,"",
magl,"Maglód",állomás,"",47.438893:19.340729
magn,"Maglódi Nyaraló",megállóhely,"",47.434168:19.363469
mago,"Mágocs-Alsómocsolád",állomás,"",
magm,"Mágori-majori rakodó",megszűnt megálló-rakodóhely,"",
magr,"Mágorpuszta",megszűnt megállóhely,"",46.960114:21.225927
mgba,"Magyarbánhegyes",állomás,"",46.451039:20.969207
mgbu,"Magyarbánhegyes-Újtelep",megszűnt megállóhely,"Vertántanya-Háritanya",46.469433:20.994101
wmbu,"Magyarbánhegyesi út",megszűnt kisvasúti megállóhely,"",
mgbe,"Magyarbél",(Felvidék/Szlovákia),"Veľký Bielv",
mgbo,"Magyarbóly",állomás,"",45.834977:18.490664
mgcs,"Magyarcsanád",megállóhely,"",46.174607:20.610275
mgcr,"Magyarcsanád mrh.",megszűnt megálló-rakodóhely,"",46.168648:20.601494
wmre,"Magyaregres",megszűnt kisvasúti,"",
mgfa,"Magyarfalu cukorgyár",állomás (Felvidék/Szlovákia),"Záhorská Ves",
mghe,"Magyarhertelend",megállóhely,"",46.193102:18.15654
mgkz,"Magyarkeresztúr-Zsebeháza",megállóhely,"",
mgku,"Magyarkút",megállóhely,"",47.849109:19.046717
mgkv,"Magyarkút-Verőce",megállóhely,"Magyarkút-Nógrádverőce",47.831285:19.040274
mgna,"Magyarnándor",állomás,"",47.972323:19.357954
wmgs,"Magyarsor",megszűnt kisvasúti,"",46.830924:19.613166
mgsk,"Magyarszék",állomás,"Magyarszék-Sikonda gyógyfürdő",46.210191:18.186044
mgsh,"Magyarszerdahely",megállóhely,"Újnéppuszta",
mgut,"Magyarút",megszűnt megállóhely (Szerbia),"",
wmah,"Mahóca",kisvasúti állomás,"",48.143897:20.592363
wmkf,"Mákföld",megszűnt kisvasúti,"",
makl,"Maklár",állomás,"",47.807953:20.404618
mako,"Makó",állomás,"",46.204588:20.474762
maks,"Makó-Újváros",megszűnt állomás,"",46.231273:20.496149
makt,"Makó-Újvásártér",megállóhely,"",46.216451:20.512292
makr,"Makranc",(Felvidék/Szlovákia),"Mokrance",
mpak,"",(Felvidék/Szlovákia),"",
mala,"Malacka",(Felvidék/Szlovákia),"Malacky",
kshl,"Malé Straciny",megszűnt (Felvidék/Szlovákia),"",
mzli,"Malé Zlievce",megszűnt (Felvidék/Szlovákia),"",
wmak,"Malomkert",kisvasúti megállóhely,"",
wmal,"Malomtelelő",kisvasúti,"",46.248668:18.856944
wmav,"Malomvölgy",kisvasúti megállóhely,"",
mand,"Mándok",állomás,"",
manz,"",megállóhely (Felvidék/Szlovákia),"",
wmar,"Mára kitérő",megszűnt kisvasúti,"",
mrli,"Marcali",megszűnt állomás,"",46.580656:17.421404
mrto,"Marcaltő",megállóhely,"",47.42774:17.34894
mrch,"",állomás (Ausztria),"",
marc,"Márczfalva-Fraknónádasd",megállóhely (Ausztria),"Marz-Rohrbach",
marf,"Márfa",megszűnt megállóhely,"",
marg,"Margit híd",megállóhely,"",47.51483:19.039285
mfal,"Margitfalva",állomás (Felvidék/Szlovákia),"Margecany",
mrbe,"Máriabesnyő",megállóhely,"",47.595743:19.389575
mrbk,"Máriabesnyői kolostor",megszűnt megállóhely,"",
mrgy,"Máriagyűd",megszűnt megállóhely,"",
mrhu,"Máriahuta-Zakárfalva",(Felvidék/Szlovákia),"Žakarovce",
mrka,"Máriakápolna",megszűnt megállóhely,"",
wmrk,"Máriakút",kisvasúti megállóhely,"",
mrko,"Máriakönnye",megszűnt megállóhely,"",
mrla,"Márialaka",megszűnt megállóhely,"",
wmam,"Máriamajor",megszűnt kisvasúti állomás,"",
wmra,"Márianosztra",kisvasúti állomás,"",
mrpo,"Máriapócs",állomás,"",47.852927:22.019146
mrst,"Máriaszőlőtelep",megszűnt megállóhely,"",
mrtg,"Máriatölgyes",(Felvidék/Szlovákia),"Dubnica nad Váhom",
mrud,"Máriaudvar",megállóhely,"",47.752487:19.164223
mruf,"Máriaújfalu",megszűnt megállóhely,"",
marh,"Mariházi",megszűnt megállóhely,"",
mark,"Márkó",megállóhely,"",47.126931:17.810778
mrok,"Márok",megállóhely,"Hercegszentmárton",45.886835:18.499095
wmtb,"Mártabánya",kisvasúti,"",48.107591:20.686225
mrte,"Mártély",állomás,"",46.473293:20.236157
mrfu,"Martfű",állomás,"",47.020814:20.292062
wmri,"Martinka",kisvasúti,"",47.550767:21.760049
mrhz,"Martonháza",(Felvidék/Szlovákia),"Ochtiná",
mrva,"Martonvásár",állomás,"",47.320617:18.781251
wmsl,"Mászlonyi út",megszűnt kisvasúti megállóhely,"Mászlonyi elágazás",
mast,"Masztinc",megszűnt (Felvidék/Szlovákia),"Maštinec",
math,"Mátéházapuszta",állomás,"",
mats,"Mátészalka",állomás,"",47.951:22.31372
matr,"Mátészalka régi",megszűnt állomás,"",
wmaf,"Matkó felső",megszűnt kisvasúti,"",46.817788:19.641268
wmaa,"Matkó-Alsó",megszűnt kisvasúti,"",46.791492:19.62445
mtba,"Mátraballa",megszűnt állomás,"",47.984642:20.024148
mtde,"Mátraderecske",megszűnt megállóhely,"",47.946406:20.077955
wmfu,"Mátrafüred",kisvasúti,"Mátrafüred-Benevár",47.830854:19.970454
wmfa,"Mátrafüred alsó",kisvasúti,"Mátrafüred-Kozmáry",47.826711:19.970995
mtmi,"Mátramindszent",megszűnt állomás,"",
mtht,"Mátranovák-Homokterenye",megszűnt állomás,"",
mtsz,"Mátraszőlős-Hasznos",megállóhely,"",47.938868:19.706501
mtvr,"Mátraverebély",megállóhely,"Mátraverebély-Szentkút kolostor, Mátraverebély-Szentkúti kolostor",47.968563:19.780191
mtve,"Mátravidéki Erőmű",állomás,"",
matn,"Mattersburg Nord",(Ausztria),"",
mtdo,"Mátyásdomb",megállóhely (Szlovénia),"Mačkovci",
wmdf,"Mátyásdomb felső",megszűnt kisvasúti megállóhely,"",
wmdo,"Mátyásdomb GV",megszűnt kisvasúti állomás,"",
mtfa,"Mátyásföld alsó",,"",
mtfo,"Mátyásföld Repülőtér",,"",
mtfi,"Mátyásföld, Imre utca",,"",
maza,"Máza-Szászvár",állomás,"",
mece,"Mece",(Horvátország),"",
mecn,"Mecenzéf",megszűnt állomás (Felvidék/Szlovákia),"Medzev",
mcsc,"Mecsekalja-Cserkút",állomás,"",
mcsj,"Mecsekjánosi",állomás,"",
mcsp,"Mecsekpölöske",megállóhely,"",
wmed,"Medgyes",megszűnt kisvasúti,"",
mede,"Medgyesegyháza",állomás,"",46.496376:21.030428
medg,"Medgyespuszta",megszűnt,"Meggyespuszta",47.049921:17.938515
medi,"Medinci-Senkovac",megszűnt (Horvátország),"",
megp,"Meggyespele",megállóhely,"Meggyes-Pelei tanyák",47.441076:19.939495
wmeg,"Megyaszó",megszűnt kisvasúti állomás,"",
megc,"Megyercs",(Felvidék/Szlovákia),"Čalovec",
mehk,"Méhkerék",megállóhely,"",
melc,"Melcsic",(Felvidék/Szlovákia),"Melčice",
wmel,"Melindai tanyák",megszűnt kisvasúti megállóhely,"",
wmly,"Mélyéger",kisvasúti,"",
mely,"Mélykút",állomás,"",
melk,"Mélykúti tanyák",megszűnt megállóhely,"",
mend,"Mende",állomás,"",47.426716:19.439849
mene,"Ménesmajor",megszűnt megállóhely,"",
mnfc,"Ménfőcsanak",állomás,"Ménfő",
mnff,"Ménfőcsanak felső",megállóhely,"Csanakfalu, Csanakfalu 5. sz. őrház",
ment,"Méntelek",megállóhely,"",46.978725:19.570694
wmen,"Menyecske",megszűnt kisvasúti,"",
mera,"Méra",megállóhely,"Felsőméra",
mern,"Mernye",állomás,"",46.508125:17.832385
mero,"Merőce",(Felvidék/Szlovákia),"Kapince",
mest,"Mesterháza-Tompaládony",megszűnt állomás,"Mesterháza-Pórládony",
mesb,"Mészkőbánya",megszűnt megálló-rakodóhely,"",
mesz,"Mesztegnyő",megszűnt állomás,"",46.507891:17.43293
wmes,"Mesztegnyő EV",kisvasúti állomás,"",
mzbe,"Mezőberény",állomás,"",
mzcs,"Mezőcsát",megszűnt állomás,"",47.824732:20.915723
mzfa,"Mezőfalva",állomás,"Hercegfalva",
mzhe,"Mezőhegyes",állomás,"",46.310843:20.815851
wmeh,"Mezőhegyes GV",megszűnt kisvasúti állomás,"",46.311264:20.806774
wmhu,"Mezőhegyes Újtelep",megszűnt kisvasúti,"",
wmhe,"Mezőhegyesi elágazás",megszűnt kisvasúti állomás,"",
mzhi,"Mezőhídvég",megszűnt állomás,"Komárom-Hidvégh, Mezőkomárom-Szabadhídvég",46.827368:18.282613
mzke,"Mezőkeresztes-Mezőnyárád",állomás,"",
mzkh,"Mezőkovácsháza",állomás,"",46.408035:20.8999
mzhf,"Mezőkovácsháza felső",megállóhely,"Bélamajor",46.415909:20.919149
wmzk,"Mezőkovácsháza GV",megszűnt kisvasúti állomás,"",46.406796:20.895674
mzkv,"Mezőkövesd",állomás,"",
mzvf,"Mezőkövesd felső",megállóhely,"",
mzko,"Mezőkövesd-Hőfürdő",megszűnt megállóhely,"",
mzkz,"Mezőköz",(Felvidék/Szlovákia),"Medzibrod",
mzla,"Mezőlak",állomás,"",
mezm,"Mezőmegyer",megszűnt megállóhely,"",
mzpe,"Mezőpeterd",állomás,"",
mzta,"Mezőtárkány",állomás,"",47.725171:20.48017
mztu,"Mezőtúr",állomás,"",
mzzo,"Mezőzombor",állomás,"",
micl,"",(Felvidék/Szlovákia),"",
micz,"",megállóhely (Felvidék/Szlovákia),"",
migl,"Miglészpataka",(Felvidék/Szlovákia),"Gemerský Milhosť",
miha,"Mihályháza",megállóhely,"",
mikc,"Mikeccsárda",megszűnt megállóhely,"",
mike,"Mikepércs",megszűnt megállóhely,"",
mikh,"Miklóshalma",megállóhely (Ausztria),"Nickelsdorf",
wmik,"Miklósmajor",megszűnt kisvasúti állomás,"",
mikl,"Miklóstelep",megállóhely,"",46.913448:19.630811
miko,"Mikófalva",megszűnt megállóhely,"",48.055959:20.321967
wmih,"Mikóháza",megszűnt kisvasúti megállóhely,"",
miks,"Mikosdpuszta",megszűnt állomás,"",47.026424:17.016262
mikf,"Mikosfalva",megszűnt megállóhely (Felvidék/Szlovákia),"Mikušovce",
mikv,"Miksavár",(Horvátország),"Macinec",
milt,"Milleniumtelep",,"",
milo,"Milohó",(Felvidék/Szlovákia),"Milochov",
mind,"Mindszent",állomás,"",
mirh,"Mirhó",megszűnt megállóhely,"",
mise,"Misérd",(Felvidék/Szlovákia),"Nové Košarišká",
wmig,"Miskolc Győri kapu",megszűnt kisvasúti,"",
wmid,"Miskolc-Dorottya utca",kisvasúti,"Miskolc-Kilián Észak",
msgo,"Miskolc-Gömöri",állomás,"Miskolc",48.106936:20.800263
msre,"Miskolc-Rendező pu.",teherpályaudvar,"",48.092168:20.799888
msrp,"Miskolc-Repülőtér",megszűnt megállóhely,"",
msti,"Miskolc-Tiszai",állomás,"Miskolc személy pu.",48.098795:20.809794
mlyn,"",(Felvidék/Szlovákia),"",
mlyz,"",(Felvidék/Szlovákia),"",
mocs,"Mőcsény",megállóhely,"",
modo,"Modor-Nagysenkőc",(Felvidék/Szlovákia),"Šenkvice",
mogy,"Mogyoród",,"",
mogb,"Mogyorósbánya",megszűnt megállóhely,"",
moha,"Moha",állomás,"",47.246146:18.340644
mohr,"Moha-Rakodó",állomás,"",47.274234:18.30628
mhcs,"Mohács",állomás,"",46.002515:18.684524
moho,"Mohora",megállóhely,"",
molv,"Molvány",megállóhely,"",
mono,"Monor",állomás,"",47.345144:19.437259
mont,"Monori tanyák",megszűnt megállóhely,"",
mone,"Monorierdő",megállóhely,"",47.308515:19.499858
monb,"Mónosbél",állomás,"",48.032086:20.329826
mona,"Monostorpályi",megszűnt állomás,"",
mons,"Monostorszeg",megszűnt megállóhely (Szerbia),"",
wmon,"Monyha",megszűnt kisvasúti megállóhely,"",
mor_,"Mór",állomás,"",47.36949:18.188733
mors,"Mór-Sporttelep",megszűnt megállóhely,"",
moru,"Mór-Újtelep",megszűnt megállóhely,"",
mrag,"Mórágy",megszűnt megállóhely,"",
mral,"Mórágy-Alsónána",megszűnt megállóhely,"",
wmoh,"Mórahalom",megszűnt kisvasúti állomás,"",
wmrg,"Morgó",kisvasúti állomás,"",
wmor,"Móricgát",megszűnt kisvasúti megállóhely,"",
wmoc,"Móricháza",megszűnt kisvasúti állomás,"",
mrja,"Morvaszentjános",(Felvidék/Szlovákia),"Moravský Ján",
msma,"Mosonmagyaróvár",állomás,"",47.850564:17.266354
msan,"Mosonszentandrás",(Ausztria),"St. Andrä am Zicksee",
mssz,"Mosonszolnok",állomás,"",
msuf,"Mosonújfalu",(Ausztria),"Neudorf",
moja,"",,"",
mojz,"",,"",
wmos,"Mosztonga major",megszűnt kisvasúti megállóhely,"",
mozs,"Mozsgó-Szulimán",megszűnt állomás,"",
muke,"Műkert",megszűnt megállóhely,"",
mrhd,"Murahíd déli hídfő",megszűnt megállóhely (Horvátország),"",
mrhe,"Murahíd északi hídfő",megszűnt megállóhely (Szlovénia),"",
mura,"Murakeresztúr",állomás,"",46.363836:16.876638
mrki,"Murakirály-Perlak",(Horvátország),"Donji Kraljevec",
mual,"Murányalja",állomás (Felvidék/Szlovákia),"Muráň",
muhr,"Murányhosszúrét",(Felvidék/Szlovákia),"Muránska Dlhá Lúka",
mrsi,"Murasiklós",(Horvátország),"Vratišinec",
mrse,"Muraszerdahely",állomás (Horvátország),"Mursko Središće",
mrso,"Muraszombat",állomás (Szlovénia),"Murska Sobota",46.659403:16.171622
muro,"Murony",állomás,"Békés-Földvár",
musz,"Musznya-Vaslak",megszűnt (Szlovénia),"",
muzs,"Muzsla",(Felvidék/Szlovákia),"Mužla",
mytv,"",(Felvidék/Szlovákia),"",
nadb,"Nadab",állomás (Románia/Erdély),"",
wnad,"Nádas-dűlő",megszűnt kisvasúti megállóhely,"",
nada,"Nádasd",megszűnt megállóhely,"",46.966515:16.602999
nade,"Nádasér",(Felvidék/Szlovákia),"Nedožery",
nadf,"Nádasfő",(Felvidék/Szlovákia),"Rohožník",
nadh,"Nádashalom",megszűnt megállóhely,"",
nads,"Nádorszállás",megszűnt megállóhely (Szerbia),"",
wndt,"Nádtelep",kisvasúti megállóhely,"",
ndud,"Nádudvar",megszűnt állomás,"",47.427455:21.173044
ndua,"Nádudvar alsó",megszűnt megállóhely,"",47.418094:21.176088
nadu,"Nádújfalu",megszűnt megállóhely,"",
wnag,"Nágel major",megszűnt kisvasúti megállóhely,"",
ngal,"Nagyállás",megszűnt megállóhely,"Póhalom, Nagyszállás",46.960255:20.815897
ngat,"Nagyatád",állomás,"",46.228446:17.35429
ngab,"Nagyatád-Bodvica",megszűnt megállóhely,"",
ngbr,"Nagybaracska",megszűnt állomás,"",
ngbs,"Nagybaracskai szőlők",megszűnt megállóhely,"",
ngba,"Nagybátony",állomás,"",
ngbl,"Nagybélic",(Felvidék/Szlovákia),"Veľké Bielice",
ngbe,"Nagyberki",megállóhely,"",46.356204:18.007802
ngbc,"Nagybiccse-Peredmér",(Felvidék/Szlovákia),"Bytča",
ngbo,"Nagybossány",(Felvidék/Szlovákia),"Bošany",
wnbu,"Nagybugac",megszűnt kisvasúti megállóhely,"",
wnbo,"Nagybörzsöny",kisvasúti,"",
ngce,"Nagycenk",állomás,"",
ngch,"Nagycenk-Hidegség",megszűnt megállóhely,"",
ngca,"Nagycsány",megszűnt megállóhely,"",
ngcc,"Nagycsécs",megállóhely,"",47.953707:20.94636
ngcr,"Nagycsere",állomás,"",
ngdb,"Nagydobos",állomás,"",48.054135:22.311363
ngdr,"Nagydorog",állomás,"",
ngec,"Nagyecsed",állomás,"",
nger,"Nagyér",megállóhely,"Nagymajláth",46.370751:20.737363
nges,"Nagyesztergár",megszűnt állomás,"",
ngfa,"Nagyfalva",megállóhely (Ausztria),"Mogersdorf",
nggn,"Nagygyanté",megszűnt megállóhely,"",
nggy,"Nagygyimót",megszűnt megállóhely,"",47.342245:17.560161
wnha,"Nagyhalász",megszűnt kisvasúti állomás,"",
wnhk,"Nagyhalászi-Kendergyár",megszűnt kisvasúti állomás,"",
ngha,"Nagyhalom",megszűnt megállóhely,"",
nghr,"Nagyharsány",megszűnt állomás,"",45.847929:18.38014
nght,"Nagyhát",állomás,"",47.581219:21.445651
wnhi,"Nagyhideghegy",megszűnt kisvasúti állomás,"",
ngic,"Nagyicce",,"",
nida,"Nagyida",(Felvidék/Szlovákia),"Veľká Ida",
ngig,"Nagyigmánd-Bábolna",állomás,"",47.630876:18.050738
wnio,"Nagyirtás-Szent Orbán Erdei Hotel",kisvasúti,"",
ngkl,"Nagykálló",állomás,"",47.870896:21.825688
nkal,"Nagykálna",(Felvidék/Szlovákia),"Kalná nad Hronom",
ngkn,"Nagykanizsa",állomás,"",46.440843:16.986792
ngkp,"Nagykapornak",állomás,"",
ngkr,"Nagykarácsony",megállóhely,"",
ngkf,"Nagykarácsony felső",megállóhely,"",
ngka,"Nagykároly",állomás (Románia/Erdély),"Carei",
ngkt,"Nagykáta",állomás,"",47.409878:19.737553
ngke,"Nagykereki",állomás,"",47.190764:21.800397
ngko,"Nagykonda",megszűnt állomás,"Konda",46.429766:18.194339
ngky,"Nagykónyi",megszűnt állomás,"",46.588706:18.219751
wnkh,"Nagykónyi Halastó",megszűnt kisvasúti,"",
wnkp,"Nagykónyi Pári út",megszűnt kisvasúti,"",
wnkt,"Nagykónyi-Tamási köves út",megszűnt kisvasúti,"",
ngks,"Nagykőrös",állomás,"",
nkos,"Nagykoszmály",(Felvidék/Szlovákia),"Veľké Kozmálovce",
ngkz,"Nagykosztolány",(Felvidék/Szlovákia),"Veľké Kostoľany",
nkuc,"Nagykuncfalva",(Felvidék/Szlovákia),"Helcmanovce",
ngla,"Nagylak",állomás,"",
nglk,"Nagylaki Kendergyár",megállóhely,"",
wnlg,"Nagyláng",megszűnt kisvasúti állomás,"",
nglp,"Nagylapos",állomás,"",
nglg,"Nagylég",(Felvidék/Szlovákia),"Lehnice",
nglv,"Nagylévárd",(Felvidék/Szlovákia),"Veľké Leváre",
nglo,"Nagylók",állomás,"Szilfamajor",
ngmf,"Nagymagasfalu",(Felvidék/Szlovákia),"Vysoká pri Morave",
ngmg,"Nagymágocs",megszűnt állomás,"",
wnma,"Nagymágocs tanácsháza",megszűnt kisvasúti állomás,"",
ngmj,"Nagymajor",megszűnt megállóhely,"",
nman,"Nagymánya",(Felvidék/Szlovákia),"Maňa",
ngmn,"Nagymányok",megállóhely,"",
ngmb,"Nagymányok-Brikettgyár",megszűnt teherpályaudvar,"",
ngmr,"Nagymaros",állomás,"",47.779872:18.95171
ngmv,"Nagymaros-Visegrád",megállóhely,"",47.785798:18.956018
ngmt,"Nagymarton",állomás (Ausztria),"Mattersburg",
ngme,"Nagymegyer",(Felvidék/Szlovákia),"Veľký Meder",
ngna,"Nagynyárád",megállóhely,"",
wnny,"Nagynyárádi kitérő",megszűnt kisvasúti,"",
ngni,"Nagynyír",megállóhely,"",46.943302:19.585478
ngor,"Nagyoroszi",állomás,"",
ngpk,"Nagypaka",(Felvidék/Szlovákia),"Veľká Paka",
ngpa,"Nagypall",megszűnt megállóhely,"",46.147691:18.459845
ngpl,"Nagypeleske",megszűnt (Románia/Erdély),"",
ngpe,"Nagypeterd",megállóhely,"",
nrak,"Nagyrákó-Pribóc",(Felvidék/Szlovákia),"Príbovce",
ngra,"Nagyrákos",megállóhely,"",46.827236:16.455661
ngrr,"Nagyrákos régi",megszűnt megálló-rakodóhely,"",
ngrc,"Nagyrécse",állomás,"",
ngrp,"Nagyrépény",(Felvidék/Szlovákia),"Veľké Ripňany",
ngrt,"Nagyrét",megállóhely,"",
wnri,"Nagyrinya puszta",megszűnt kisvasúti állomás,"",
nroc,"Nagyrőce",(Felvidék/Szlovákia),"Revúca",
nsal,"Nagysalló",(Felvidék/Szlovákia),"Tekovské Lužany",
nsan,"Nagysándori",(Felvidék/Szlovákia),"Ostratice",
ngsi,"Nagysimonyi",megállóhely,"",
ngsu,"Nagysurány",állomás (Felvidék/Szlovákia),"Šurany",
nsab,"Nagyszabos",állomás (Felvidék/Szlovákia),"Slavošovce",
nslt,"Nagyszalatna",(Felvidék/Szlovákia),"Zvolenská Slatina",
ngsa,"Nagyszántó",megszűnt (Románia/Erdély),"",
ngsk,"Nagyszekeres",állomás,"",47.975898:22.613493
ngso,"Nagyszéksós",megszűnt (Szerbia),"",
ngsn,"Nagyszénás",állomás,"",
ngsj,"Nagyszentjános",állomás,"",47.705402:17.869914
ngmi,"Nagyszentmihály",megszűnt állomás (Ausztria),"Großpetersdorf",47.235103:16.324572
wnpl,"Nagyszentpál puszta",megszűnt kisvasúti állomás,"",
ngsz,"Nagyszombat",állomás (Felvidék/Szlovákia),"Trnava",
ngta,"Nagytálya",megszűnt megállóhely,"",
wnty,"Nagytanya",megszűnt kisvasúti,"",
wntg,"Nagytanya AGV",megszűnt kisvasúti,"",
wnta,"Nagytanya NyK",megszűnt kisvasúti megállóhely,"",
wnte,"Nagytanyai elágazás",megszűnt kisvasúti,"",
ngtl,"Nagytapolcsány",(Felvidék/Szlovákia),"Topoľčany",
ngtt,"Nagytétény",állomás,"",47.387971:18.974423
ngtd,"Nagytétény-Diósd",állomás,"",47.398166:18.972392
ngto,"Nagytőke",állomás,"",
ngtp,"Nagytótipuszta",megszűnt megállóhely,"",
ngug,"Nagyugróc",(Felvidék/Szlovákia),"Veľké Uherce",
ngut,"Nagyút",állomás,"",
ngva,"Nagyvárad",állomás (Románia/Erdély),"Oradea",
ngve,"Nagyvenyim",megszűnt állomás,"",
ngvi,"Nagyvisnyó-Dédes",megszűnt megállóhely,"",48.143467:20.432023
ngzo,"Nagyzomlin",megszűnt (Románia/Erdély),"",
wnak,"Nak",megszűnt kisvasúti állomás,"Nak felső",
wnaa,"Nak alsó",megszűnt kisvasúti megállóhely,"",
nale,"",(Felvidék/Szlovákia),"",
nalp,"",(Felvidék/Szlovákia),"",
nanh,"Nándorhuta",(Felvidék/Szlovákia),"Nová Maša",
nanv,"Nándorvölgy",(Felvidék/Szlovákia),"Vaľkovňa",
napk,"Napkor",megállóhely,"",47.948678:21.873186
negy,"Negyed",állomás (Felvidék/Szlovákia),"Neded",
neke,"Nekézseny",megszűnt megállóhely,"",48.163051:20.42511
nmab,"Nemesabony",(Felvidék/Szlovákia),"Veľké Blahovo",
nmbi,"Nemesbikk",megszűnt megállóhely,"",
nmdi,"Nemesdicske",(Felvidék/Szlovákia),"Dyčka",
nmfa,"Nemesfalva",(Felvidék/Szlovákia),"Mládzovo",
nmgu,"Nemesgulács-Kisapáti",megállóhely,"",
nmgo,"Nemesgörzsöny",megállóhely,"Felsgörzsöny",47.402846:17.376634
nmke,"Nemeske",megállóhely,"",
nmkr,"Nemeskér-Egyházasfalu",,"",
nmku,"Nemeskeresztúr",megállóhely,"",47.093215:17.183925
nmko,"Nemeskocs",megállóhely,"",47.203931:17.188028
nmks,"Nemeskosút",megszűnt (Felvidék/Szlovákia),"",
nmkt,"Nemeskosztolány",(Felvidék/Szlovákia),"Zemianske Kostoľany",
nmvi,"Nemesvita",megszűnt megállóhely,"",
nemd,"Németdiószeg",(Felvidék/Szlovákia),"Sládkovičovo",
nmpo,"Németpróna",(Felvidék/Szlovákia),"Nitrianske Pravno",
nemu,"Németújvár",megszűnt állomás (Ausztria),"",
nems,"Nemsó",állomás (Felvidék/Szlovákia),"Nemšová",
nemt,"Nemti",megszűnt megállóhely,"",
nena,"Nenadics",megszűnt megállóhely (Szerbia),"",
wneh,"Neszehíd",megszűnt kisvasúti megállóhely,"",
nszm,"Neszmély",állomás,"",
nszt,"Neszmélyi téglagyár",megszűnt megállóhely,"Neszmélyi gyártelep",
nezs,"Nezsider",állomás (Ausztria),"Neusiedl am See",
nezf,"Nezsider-fürdő",(Ausztria),"Bad Neusiedl am See, Nezsider-Alsóváros",
nick,"Nick",megszűnt állomás,"",47.404045:17.017123
nicr,"Nick-Rábahíd",megszűnt megállóhely,"",
ntrz,"",megállóhely (Felvidék/Szlovákia),"",
asaj,"",állomás (Felvidék/Szlovákia),"",48.736278:20.418576
nogr,"Nógrád",állomás,"",
nogk,"Nógrádkövesd",állomás,"",
nogs,"Nógrádszakál",állomás,"",
wnor,"Normafa",kisvasúti megállóhely,"",47.4999897:19.970814
nosi,"",(Felvidék/Szlovákia),"",
nosk,"Noskovci",megszűnt (Horvátország),"",
wnos,"Nosztány",megszűnt kisvasúti állomás,"",
nova,"Novajidrány",állomás,"Garatna",
nvse,"",(Horvátország),"",
wnav,"Nyakvágó",megszűnt kisvasúti,"",
wnle,"Nyárilegelő",megszűnt kisvasúti megálló-rakodóhely,"",
nyrj,"Nyárjas",megállóhely,"",
nyrl,"Nyárlőrinc",állomás,"Kohárymajor",
nyra,"Nyárlőrinc alsó",megállóhely,"Koháryszentlőrinc",
nyrs,"Nyárlőrinci szőlők",megállóhely,"Koháryszöllők",
nyrp,"Nyársapát",állomás,"",
wnke,"Nyékes",megszűnt kisvasúti megállóhely,"",
nykh,"Nyékládháza",állomás,"",47.992598:20.840348
nyrg,"Nyergesújfalu",állomás,"",
nyrf,"Nyergesújfalu felső",megállóhely,"",
wnyl,"Nyilas",megszűnt kisvasúti megállóhely,"",
nyab,"Nyírábrány",állomás,"",
wnyc,"Nyíracsád",megszűnt kisvasúti megállóhely,"",
nyad,"Nyíradony",állomás,"",47.699023:21.902509
nyba,"Nyírbátor",állomás,"",47.842605:22.131644
wnbt,"Nyírbéltek",megszűnt kisvasúti állomás,"",
wnba,"Nyírbéltek alsó",megszűnt kisvasúti megállóhely,"",
nybt,"Nyírbogát",állomás,"",47.793239:22.067142
nybn,"Nyírbogdány",állomás,"",48.082346:21.855046
nych,"Nyírcsaholy",megállóhely,"",
nycr,"Nyírcsászári",állomás,"",47.865825:22.179392
nyeh,"Nyíregyháza",állomás,"",47.946647:21.705498
wnya,"Nyíregyháza átrakó",megszűnt kisvasúti állomás,"",
wnyb,"Nyíregyháza Beloiannisz tér",megszűnt kisvasúti,"",
nyek,"Nyíregyháza külső",állomás,"",47.943049:21.740128
wnyk,"Nyíregyháza NyK",megszűnt kisvasúti megállóhely,"",
wnyv,"Nyíregyháza-Vásártér",megszűnt kisvasúti megállóhely,"",
nyge,"Nyírgelse",állomás,"",47.750916:21.987918
wnir,"Nyíri",megszűnt kisvasúti megállóhely,"",
nyja,"Nyírjákó",megszűnt megállóhely,"",
nyka,"Nyírkarász",megszűnt állomás,"",
nyla,"Nyírlak",megállóhely,"",
wnlu,"Nyírlugos",megszűnt kisvasúti megállóhely,"",
wnlf,"Nyírlugos felső",megszűnt kisvasúti megállóhely,"",
nyma,"Nyírmada",állomás,"",48.059123:22.203257
wnrf,"Nyírmártonfalva",megszűnt kisvasúti megállóhely,"",
wnra,"Nyírmártonfalva alsó",megszűnt kisvasúti megállóhely,"",
nyme,"Nyírmeggyes",megállóhely,"",47.92259:22.256569
nymi,"Nyírmihálydi",megállóhely,"",47.737403:21.958791
wnso,"Nyírszőlős",megszűnt kisvasúti megállóhely,"",
nyte,"Nyírtelek",állomás,"Királytelekpuszta",
ntra,"Nyitra",(Felvidék/Szlovákia),"Nitra",
ntba,"Nyitrabánya",(Felvidék/Szlovákia),"Handlová",
ntiv,"Nyitraivánka",(Felvidék/Szlovákia),"Ivanka pri Nitre",
ntko,"Nyitrakoros",(Felvidék/Szlovákia),"Krušovce",
ntlu,"Nyitraludány",(Felvidék/Szlovákia),"Ludanice",
ntke,"Nyitranagykér",(Felvidék/Szlovákia),"Veľký Kýr",
ntno,"Nyitranovák",(Felvidék/Szlovákia),"Nováky",
ntse,"Nyitraszeg",(Felvidék/Szlovákia),"Bistricany",
ntzb,"Nyitrazsámbokrét",(Felvidék/Szlovákia),"Žabokreky nad Nitrou",
tnom,"Nyomási földek",megszűnt kisvasúti megállóhely,"",
nyul,"Nyúl",megállóhely,"",47.587657:17.698226
nyus,"Nyulas",(Ausztria),"Jois",
nyls,"Nyulas mh.",megszűnt megállóhely,"",
wnyj,"Nyúlmály",kisvasúti,"",
nyut,"Nyustya-Likér",(Felvidék/Szlovákia),"Hnúšťa",
oalm,"Óalmás",megszűnt megállóhely,"Mátételke-Óalmás",46.11488:19.255621
obud,"Óbuda",állomás,"",47.569283:19.031796
obug,"Óbuda-Gázgyár",megszűnt teherpályaudvar,"",
obog,"Óbög",megállóhely,"",46.962118:20.093649
ocsa,"Ócsa",állomás,"",47.301351:19.232493
ocsd,"Ócsad",(Felvidék/Szlovákia),"Oščadnica",
ocss,"Ócsai szőlők",megállóhely,"",47.284979:19.265672
ocrd,"Ócsárd",megszűnt állomás,"Ócsárdvaskapu",
ocse,"Őcsény",megállóhely,"",
diny,"Ódinnyés forgalmi kitérő",megszűnt állomás,"Dinnyés",47.176605:18.546832
wodv,"Odvaskő",megszűnt kisvasúti,"",
ofeh,"Ófehértó",állomás,"",47.940599:22.041278
ogya,"Ógyalla",állomás (Felvidék/Szlovákia),"Hurbanovo",
ohaj,"Óhaj-Hull",(Felvidék/Szlovákia),"Hul",
ohat,"Ohat-Pusztakócs",megállóhely,"",47.623353:20.951028
okan,"Okány",állomás,"",46.892546:21.339236
okka,"Okorág-Kárászpuszta",megállóhely,"",
okor,"Ököritófülpös",megállóhely,"Szatmárököritó",
okrm,"Ókörmöcske",(Felvidék/Szlovákia),"Stará Kremnička",
olad,"Olad",megszűnt,"",47.246498:16.571692
olah,"Oláhpatak",megálló-rakodóhely (Felvidék/Szlovákia),"Vlachovo",48.795333:20.390535
olaf,"Olaszfalu",megszűnt megállóhely,"",47.249559:17.887543
olat,"Olaszliszka-Tolcsva",állomás,"",
olbo,"Ölbő-Alsószeleste",állomás,"",
oleg,"Ólegyen",megszűnt állomás,"",
olma,"Olmányfalva",(Felvidék/Szlovákia),"Uľanka",
olve,"Ölved-Rozsonymitta",(Felvidék/Szlovákia),"Trenčianske Jastrabie",
ondd,"Ondód",megszűnt megállóhely,"",
ondr,"Ondrohó-puszta",(Felvidék/Szlovákia),"Ondrochov, Ondrohópuszta",
onga,"Onga",állomás,"",
ongu,"Ongaújfalu",megszűnt megállóhely,"",
wont,"Öntés",megszűnt kisvasúti megállóhely,"",
opak,"Ópaks",megszűnt állomás,"",
opal,"Ópályi",megállóhely,"",47.997914:22.318243
oplu,"",(Felvidék/Szlovákia),"",
opec,"Ópécska",állomás (Románia/Erdély),"",46.174166:21.086111
opet,"Ópécskai tanyák",megszűnt (Románia/Erdély),"",
orbo,"Őrbottyán",állomás,"Őrszentmiklós-Vácbottyán",47.685574:19.283957
word,"Ördögárka",megszűnt kisvasúti,"",
orcs,"Öregcsertő",megszűnt állomás,"",
orlk,"Öreglak",állomás,"",
ortn,"Öregtanyák",megszűnt megállóhely,"",
worg,"Orgovány",megszűnt kisvasúti,"",
wori,"Orgoványi út",megszűnt megállóhely,"",
orhl,"Őrhalom",megállóhely,"",
orhr,"Őrhalom régi",megszűnt megállóhely,"",
worh,"Őrhegy",megszűnt kisvasúti megállóhely,"",
hodo,"Őrihódos",állomás,"",46.820198:16.329162
orsz,"Őriszentpéter",állomás,"",46.829154:16.416129
orsr,"Őriszentpéter régi",megszűnt állomás,"",
orje,"Örjeg",megszűnt megállóhely,"",
orke,"Örkény",állomás,"",47.133005:19.44713
orlj,"Orlajtörék",(Felvidék/Szlovákia),"Veľké Teriakovce",
worl,"Őrlőmű",kisvasúti,"",
woge,"Örményes gépállomás",megszűnt kisvasúti,"",
woke,"Örményes kétárok",megszűnt kisvasúti,"",
ormo,"Ormosbánya",megszűnt megállóhely,"Ormospuszta",48.33469:20.648222
oros,"Oros",állomás,"",47.9458:21.806394
orhz,"Orosháza",állomás,"",46.566194:20.664466
orha,"Orosháza alsó",megszűnt megállóhely,"Szentetornyai községháza",
woha,"Orosháza Aradi megálló",megszűnt kisvasúti megállóhely,"",
orhf,"Orosháza felső",megállóhely,"",46.553523:20.655773
wohf,"Orosháza főtér",megszűnt kisvasúti,"",
wohh,"Orosháza Hatos",megszűnt kisvasúti megállóhely,"",
oruv,"Orosháza-Üveggyár",megállóhely,"",
wohi,"Orosházi iskola",megszűnt kisvasúti megállóhely,"",
orta,"Orosházi tanyák",megállóhely,"Orosházai tanyák",
orok,"Oroszka",(Felvidék/Szlovákia),"Pohronský Ruskov",
orla,"Oroszlány",állomás,"",47.487002:18.308829
orov,"Oroszvár",állomás (Felvidék/Szlovákia),"Rusovce",
orsv,"Örs vezér tere",állomás,"",
orsj,"Örsújfalu",(Felvidék/Szlovákia),"Nová Stráž",
orsu,"Országút",megszűnt megállóhely,"",46.485071:21.202987
worf,"Országúti őrház",megszűnt kisvasúti állomás,"",
orsa,"Őrszállás",megszűnt állomás (Szerbia),"",45.931515:19.149191
wors,"Őrszem",megszűnt kisvasúti megállóhely,"",
ortz,"Ortaháza",megállóhely,"",
wort,"Ortástető",kisvasúti,"",
orti,"Őrtilos",állomás,"Légrád",46.297817:16.887672
wory,"Ortutay major",megszűnt kisvasúti megállóhely,"",
orve,"Örvényes",megállóhely,"",
osgy,"Osgyán",megszűnt (Felvidék/Szlovákia),"Ožďany",
osku,"Öskü",megállóhely,"",47.15977:18.074868
wosl,"Osli",megszűnt kisvasúti állomás,"",
wose,"Osli elágazás",megszűnt kisvasúti állomás,"",
ossi,"Őssipuszta",megszűnt (Románia/Erdély),"",
osff,"Ostffyasszonyfa",,"",
osus,"",(Felvidék/Szlovákia),"",
osve,"Ösvényes",(Felvidék/Szlovákia),"Ochodnica",
osze,"Őszeszék",megállóhely,"Összeszék",
oszk,"Oszkó",megszűnt állomás,"",
osla,"Oszlány",(Felvidék/Szlovákia),"Oslany",
oszl,"Oszlop",megszűnt megállóhely (Ausztria),"",
oszo,"Ószolnok",megszűnt állomás,"",
oszt,"Osztopán",állomás,"",
otfa,"Ötfa",megszűnt megállóhely,"",
otte,"Öttevény",állomás,"",47.719845:17.489149
ottl,"Ottlaka",állomás (Románia/Erdély),"Grăniceri",46.512646:21.302298
otvo,"Ötvös",megszűnt állomás,"",47.008589:17.117221
otvk,"Ötvöskónyi",megállóhely,"",
ovar,"Óvári",megszűnt (Románia/Erdély),"",
ozd_,"Ózd",állomás,"",48.222569:20.294622
ozda,"Ózd alsó",megállóhely,"",48.23439:20.318958
ozdk,"Ózd külső",megszűnt teherpályaudvar,"",
ozed,"Őzedmajor",megszűnt állomás,"",46.97175:20.875536
wozt,"Őztelek",megszűnt kisvasúti megállóhely,"",
ozrn,"Özörény",(Felvidék/Szlovákia),"Gemerská Hôrka",
pcsm,"Pacsmag",megszűnt megállóhely,"",
pacs,"Pácsony",állomás,"Győrvár",47.009758:16.833816
wpah,"Páhi",megszűnt kisvasúti,"",
wpak,"Páka",kisvasúti,"",
pako,"Pakod",megállóhely,"",46.9591:16.996598
pakz,"Pákozd",megszűnt megállóhely,"",47.201307:18.499602
paks,"Paks",megszűnt állomás,"",
pakd,"Paks-Dunapart",megszűnt megállóhely,"",
palp,"Paládicspuszta",megszűnt megállóhely,"Paládics",
wpal,"Pálháza",kisvasúti állomás,"",
wpai,"Pálháza-Ipartelep",kisvasúti állomás,"",
pali,"Páli-Vadosfa",megállóhely,"",
palc,"Palicsfürdő",állomás (Szerbia),"Palić, &#1055;&#1072;&#1083;&#1080;&#1115;",46.103388:19.760841
wpli,"Pálinkás",megszűnt kisvasúti állomás,"",
palk,"Palkonya",megállóhely,"Németpalkonya",
pall,"Pallagpusztai major",megszűnt megállóhely,"",
wplm,"Pálmajor",kisvasúti,"",
palm,"Pálmatér",megszűnt megállóhely,"",
pals,"Palosnya",(Felvidék/Szlovákia),"Poluvsie",
palo,"Palotabozsok",megszűnt állomás,"",46.132049:18.645467
wpau,"Palotai úti iskola",megszűnt kisvasúti,"",
pamu,"Pamuk",megállóhely,"",
pand,"Pándorfalu",állomás (Ausztria),"Parndorf",
pank,"Pankasz",állomás,"",46.836057:16.497607
pann,"Pannonhalma",állomás,"",47.547614:17.740665
pant,"Pannóniatelep",megállóhely,"",47.652272:19.064959
papa,"Pápa",állomás,"",47.340573:17.459089
papt,"Pápateszér",megszűnt állomás,"",47.376036:17.68429
wpph,"Paphegy",kisvasúti állomás,"Kincskereső",
wpap,"Papírgyár",kisvasúti megállóhely,"",
papk,"Papkeszi",megszűnt állomás,"",
wprm,"Paradicsom major",megszűnt kisvasúti,"",
pari,"Pári",megszűnt megállóhely,"",46.586429:18.251377
park,"Párkánynána",állomás (Felvidék/Szlovákia),"Štúrovo",
pard,"",(Ausztria),"",
part,"",(Felvidék/Szlovákia),"",
pask,"Paskaháza",(Felvidék/Szlovákia),"Pašková",
wpas,"Paszab",megszűnt kisvasúti,"",
past,"Pásztó",állomás,"",
pata,"Patakalja",(Felvidék/Szlovákia),"Podrečany",
patk,"Pátka",megszűnt állomás,"",47.26814:18.510116
patr,"Pátroha",állomás,"",48.158715:21.99681
paty,"Pátyod",megszűnt megállóhely,"Pátyod-Csengerjánosi",
pazm,"Pázmáneum",megállóhely,"",47.630322:18.852641
pece,"Pécel",állomás,"",47.493644:19.338621
pecs,"Pécs",állomás,"",46.066555:18.225298
pcsf,"Pécs felső",megszűnt állomás,"Mecsekszabolcs",46.090617:18.287654
pcgy,"Pécs-Gyárváros",megszűnt megállóhely,"",46.081364:18.261313
pcku,"Pécs-Külváros",állomás,"",46.071741:18.240121
pcvs,"Pécs-Vasas",megszűnt állomás,"Somogy-Vasas",46.112555:18.313944
pcbr,"Pécsbánya-Rendező",állomás,"Üszög",46.063993:18.270119
pcud,"Pécsudvard",megállóhely,"",46.009275:18.275705
pcuh,"Pécsújhegy",megszűnt megállóhely,"",46.086283:18.276426
pcvr,"Pécsvárad",megszűnt állomás,"",46.156556:18.424988
pell,"Pellérd",megszűnt állomás,"",
pels,"Pelsőc",állomás (Felvidék/Szlovákia),"Plešivec",
wpel,"Pély",megszűnt kisvasúti állomás,"",
wpeh,"Pély Hatrongyos elágazás",megszűnt kisvasúti,"",
wpek,"Pély kitérő",megszűnt kisvasúti,"",
pely,"Pelyvás",(Felvidék/Szlovákia),"Plevník-Drienové",
peny,"Penyige",állomás,"",47.995318:22.56722
perb,"Perbenyik",állomás (Felvidék/Szlovákia),"Pribenik",
wpba,"Perbenyik átrakó",megszűnt kisvasúti állomás (Felvidék/Szlovákia),"",
pert,"Perbete",(Felvidék/Szlovákia),"Pribeta",
perd,"Perdócmajor",megszűnt megállóhely,"",46.203271:17.079459
wpec,"Pereces",megszűnt kisvasúti állomás,"",
wper,"Pereces kitérő",megszűnt kisvasúti megállóhely,"",
prde,"Pered",(Felvidék/Szlovákia),"Tešedíkovo",
pere,"Pereszteg",megállóhely,"",
perk,"Perkupa",megállóhely,"",
perp,"Perlep",megszűnt (Felvidék/Szlovákia),"Zlaté Moravce-Prílepy",
pern,"Pernek",(Felvidék/Szlovákia),"Pernek pri Zohore",
pers,"Perse",(Felvidék/Szlovákia),"Prša",
pser,"Pesterzsébet",megállóhely,"Pestszenterzsébet",47.433828:19.096981
psef,"Pesterzsébet felső",,"",
psim,"Pestszentimre",állomás,"Soroksárpéteri",47.4031:19.187567
psif,"Pestszentimre felső",megállóhely,"Pestimre felső",47.41404:19.173044
pssz,"Pestszentlőrinc",állomás,"Pestlőrinc",47.454762:19.182809
plkb,"Pestszentlőrinc-Kavicsbánya",megszűnt állomás,"",47.443744:19.209163
psuh,"Pestújhely",megszűnt megállóhely,"",47.531756:19.125708
peta,"Petárda",megszűnt megállóhely (Horvátország),"",
wptf,"Péterfa",megszűnt kisvasúti,"",
ptht,"Péterhegy-Tókeresztúr",megállóhely (Szlovénia),"Gornji Petrovci",
pthk,"Péterhida-Komlósd",megállóhely,"",46.006659:17.358118
petf,"Pétfürdő",állomás,"",47.167274:18.122488
petn,"Petneháza",megszűnt megállóhely,"",
wpfi,"Petőfi tsz.",megszűnt kisvasúti,"",
ptsl,"Petőfiszállás",állomás,"Szentkút, Pálosszentkút",
ptst,"Petőfiszállási tanyák",megállóhely,"Pálmonostora, Kiskunfélegyházi tanyák",
petv,"Petőfiváros",megállóhely,"Kiskunfélegyházi gépállomás, Városi téglagyár",46.725533:19.848183
peth,"Petőháza",állomás,"",
ptot,"Petőtelep",(Felvidék/Szlovákia),"Zlaté Moravce závody",
pett,"Pettend",megállóhely,"",47.262701:18.713055
wpet,"Petyeráktanya",kisvasúti megállóhely,"",
wpkt,"Pikó tanya",megszűnt kisvasúti,"",
pila,"",(Felvidék/Szlovákia),"",
plis,"Pilis",állomás,"",47.279401:19.537141
plca,"Piliscsaba",állomás,"",47.638375:18.829488
plcv,"Piliscsév",megállóhely,"Csév",47.673949:18.791308
plja,"Pilisjászfalu",megállóhely,"Piliscsaba-Jászfalu, Tinnye",47.656154:18.796302
plib,"Pilisszentiván-Bányatelep",megszűnt megálló-rakodóhely,"",
plvo,"Pilisvörösvár",állomás,"",47.614475:18.902548
pinc,"Pincehely",állomás,"",
pinf,"Pinkafő",állomás (Ausztria),"Pinkafeld",47.37055:16.116444
pinm,"Pinkamindszent",megszűnt állomás,"",
pino,"Pinkaóvár",megszűnt (Ausztria),"Burg-Eisenberg, Óvár-Vashegy",47.220764:16.406213
wpin,"Pinkóc",megszűnt kisvasúti megállóhely,"",
pinn,"Pinnye",állomás,"",
wpip,"Pipishegy",kisvasúti,"",
piro,"Piroska",megállóhely,"",47.146677:20.127904
pirt,"Pirtó",állomás,"",
pirs,"Pirtói szőlők",megállóhely,"",
pisz,"Piszke",állomás,"Lábatlan felső",
pitv,"Pitvaros",megállóhely,"",46.326312:20.746131
pitr,"Pitvaros régi",megszűnt megállóhely,"",46.323284:20.753452
wpit,"Pityur-rétje",kisvasúti megállóhely,"",
pobe,"Pobedény-Felsőszerdahely",(Felvidék/Szlovákia),"Horná Streda",
pocs,"Pocsaj-Esztár",állomás,"",47.28831:21.792802
podb,"",megszűnt (Felvidék/Szlovákia),"",
podl,"",(Felvidék/Szlovákia),"",
podk,"",(Felvidék/Szlovákia),"",
podz,"",megszűnt (Felvidék/Szlovákia),"",
pogo,"Pogonyipuszta",megállóhely,"",48.296392:20.381575
poha,"Póhamara",megszűnt megállóhely,"",
poho,"Pohorellavasgyár",(Felvidék/Szlovákia),"Pohorelská Maša",
poka,"Pókaszepetk",állomás,"",46.924475:16.971999
poko,"Pokoltanya",megszűnt megállóhely,"",
pgar,"Polgár",megszűnt állomás,"",
pgdi,"Polgárdi",állomás,"",
pgip,"Polgárdi-Ipartelepek",állomás,"",
pgte,"Polgárdi-Tekerespuszta",megállóhely,"",47.019037:18.300603
pols,"Polstrau",állomás (Szlovénia),"Središče",
polt,"Poltár",(Felvidék/Szlovákia),"Poltár",
poma,"Pomáz",állomás,"",47.642956:19.032442
pamh,"Pomogy",állomás (Ausztria),"Pamhagen",
porc,"Porcsalma-Tyukod",állomás,"",
pork,"Poroszka",megszűnt (Felvidék/Szlovákia),"Pruské",
poro,"Poroszló",állomás,"",47.65792:20.654565
porp,"Porpác",állomás,"",47.238804:16.832964
porr,"Porrogszentkirály",megállóhely,"",
port,"Portelek",állomás,"Szentimre",47.418011:19.958693
porv,"Porva-Csesznek",állomás,"Csesznek",47.326924:17.841404
posa,"Pósahalom",megszűnt megállóhely,"Puszta-Kakasszék",
posf,"Pósfa",megállóhely,"",
pova,"",(Felvidék/Szlovákia),"",
pozb,"Pozba",(Felvidék/Szlovákia),"Pozba",
pzon,"Pozsony",állomás (Felvidék/Szlovákia),"Bratislava hl. stanica",48.158811:17.106302
pzdi,"Pozsony dinamitgyár",megszűnt (Felvidék/Szlovákia),"Bratislava dynamitka zastávka",
pzre,"Pozsony rendező",(Felvidék/Szlovákia),"Bratislava východ",
pzuv,"Pozsony-Újváros",megszűnt állomás (Felvidék/Szlovákia),"Bratislava-Nivy, Bratislava-Nové Mesto",
pzal,"Pozsonyalmás",(Felvidék/Szlovákia),"Jablonové",
pziv,"Pozsonyivánka",(Felvidék/Szlovákia),"Ivánka pri Dunaji",
pzli,"Pozsonyligetfalu",állomás (Felvidék/Szlovákia),"Bratislava-Petržalka, Engerau",48.121436:17.099117
pzna,"Pozsonynádas-Szomolány",(Felvidék/Szlovákia),"Smolenice",
pzpu,"Pozsonypüspöki",(Felvidék/Szlovákia),"Podunajské Biskupice",
pzso,"Pozsonyszőlős",(Felvidék/Szlovákia),"Bratislava-Vajnory",
pozv,"Pózva",megszűnt megállóhely,"",
pozr,"Pózva régi",megszűnt,"",
prkf,"Prakfalva",(Felvidék/Szlovákia),"Prakovce",
prkz,"",(Felvidék/Szlovákia),"",
prav,"",(Felvidék/Szlovákia),"",
pred,"",(Felvidék/Szlovákia),"",
prnz,"",megállóhely (Felvidék/Szlovákia),"",
prie,"",(Felvidék/Szlovákia),"",
priv,"Privigye-Bajmócfürdő",(Felvidék/Szlovákia),"Prievidza",
wpru,"Prügy",megszűnt kisvasúti állomás,"",
wpra,"Prügy alsó",megszűnt kisvasúti,"",
psia,"",(Felvidék/Szlovákia),"",
pstr,"",(Felvidék/Szlovákia),"",
pucz,"",(Felvidék/Szlovákia),"",
pucv,"",(Felvidék/Szlovákia),"",
puho,"Puhó-Kocskóc",(Felvidék/Szlovákia),"Púchov",
wpus,"Puskaporos",kisvasúti állomás,"",
pban,"Pusztabánréve",megállóhely,"",
pber,"Pusztaberény",megállóhely,"",
pcsa,"Pusztacsalád",megszűnt megállóhely,"",47.487918:16.908581
pdom,"Pusztadomaháza",megszűnt megállóhely,"Puszta-Domaháza",
pecg,"Pusztaecseg",megszűnt állomás,"Ecsegfalva",
pfod,"Pusztafödémes",(Felvidék/Szlovákia),"Pusté Úľany",
wpfo,"Pusztaföldvár",megszűnt kisvasúti állomás,"",
wpfa,"Pusztaföldvár alsó",megszűnt kisvasúti megállóhely,"",
wpfe,"Pusztaföldvári elágazás",megszűnt kisvasúti állomás,"",
pgyi,"Pusztagyimót",megszűnt megállóhely,"",47.349642:17.515033
pket,"Pusztakettős",megállóhely,"",
pkur,"Pusztakürt",megszűnt állomás,"",
plan,"Pusztalánc",megszűnt állomás,"",47.135452:17.05748
wpma,"Pusztamarót",megszűnt kisvasúti állomás,"",
wpme,"Pusztamérges",megszűnt kisvasúti állomás,"",
pmon,"Pusztamonostor",állomás,"",47.564194:19.794286
papo,"Pusztapó",állomás,"Kétpó",
pszb,"Pusztaszabolcs",állomás,"Adony-Pusztaszabolcs",
pszk,"Pusztaszakállas",megszűnt megállóhely,"",
pszi,"Pusztaszentistván",megállóhely,"",47.439567:19.470703
pszm,"Pusztaszentmihályfa",megszűnt megállóhely,"",46.85971:18.270555
pszt,"Pusztaszenttornya",megszűnt megállóhely,"",
pszu,"Pusztaszuri",megszűnt megállóhely,"",47.166063:20.364975
ptem,"Pusztatemplom",megállóhely,"",
ptur,"Pusztatúrpásztó",megszűnt állomás,"",
pvam,"Pusztavám",megszűnt állomás,"",
pvaa,"Pusztavám alsó",megszűnt megállóhely,"",
putn,"Putnok",állomás,"",48.286466:20.437416
ppfa,"Püspökfalu",(Felvidék/Szlovákia),"Biskupová",
ppha,"Püspökhatvan",megállóhely,"",
ppla,"Püspökladány",állomás,"",
pplv,"Püspökladány-Vásártér",megállóhely,"",
ppmo,"Püspökmolnári",állomás,"Rábamolnári",47.084707:16.786701
porb,"Pörböly",állomás,"",
wpor,"Pörböly ÁEV",kisvasúti állomás,"",
porf,"Pörböly felső",megszűnt megállóhely,"",
post,"Pöstyén",(Felvidék/Szlovákia),"Piešťany",
potr,"Pötréte",megállóhely,"",
rbhi,"Rábahíd",megállóhely,"",47.438537:17.337677
rbpa,"Rábapatona",megállóhely,"",
rbpo,"Rábapordány",állomás,"",47.55744:17.315238
rbso,"Rábasömjén",megszűnt,"",
rbta,"Rábatamási",állomás,"",
raca,"Rácalmás",állomás,"",
wrca,"Ráckeresztúr alsó",megszűnt kisvasúti,"",
wrch,"Ráckeresztúr Hősök tere",megszűnt kisvasúti,"",
wrcm,"Ráckeresztúr mérlegház",megszűnt kisvasúti,"",
rack,"Ráckeve",állomás,"",
wrad,"Radaháza",megszűnt kisvasúti,"",
radi,"Rádiháza",megállóhely,"",
rado,"Radosna",állomás (Felvidék/Szlovákia),"Radošina",
wrao,"Radostyán",megszűnt kisvasúti,"",
radv,"Radvány",(Felvidék/Szlovákia),"Radvaň",
ragy,"Ragyolc",megállóhely (Felvidék/Szlovákia),"Radzovce",
rajc,"Rajec",(Felvidék/Szlovákia),"Rajec",
rajf,"Rajecfürdő",(Felvidék/Szlovákia),"Konská pri Rajci",
rajm,"Rajecfürdő megálló",(Felvidék/Szlovákia),"Rajecké Teplice",
rajk,"Rajka",állomás,"",47.994227:17.192733
raka,"Rakamaz",állomás,"",
rakh,"Rákhát",megszűnt megállóhely,"",
rkta,"Rákóczitanya",megállóhely,"",48.022126:22.177957
rkos,"Rákos",állomás,"",47.488657:19.173348
rkcs,"Rákoscsaba",megállóhely,"",47.492059:19.284319
rkcu,"Rákoscsaba-Újtelep",megállóhely,"",47.487241:19.271231
rkfa,"Rákosfalva",,"",
rkhe,"Rákoshegy",állomás,"",47.468693:19.244851
rkku,"Rákoskeresztúr",megszűnt megállóhely,"",47.487784:19.243605
rkke,"Rákoskert",megállóhely,"",47.456846:19.295726
rkli,"Rákosliget",megállóhely,"",47.485995:19.258203
rpip,"Rákospalota-Iparvágány kiágazás",szolgálati hely,"",47.581005:19.125055
rpke,"Rákospalota-Kertváros",megállóhely,"",47.578312:19.122724
rpuj,"Rákospalota-Újpest",állomás,"",47.565744:19.112198
rren,"Rákosrendező",állomás,"",47.525378:19.089291
rsmi,"Rákosszentmihály",állomás,"",47.521232:19.146214
rako,"",(Felvidék/Szlovákia),"",
wrnd,"Ranódfa",megszűnt kisvasúti állomás,"",
wran,"Ranódfai elágazás",megszűnt kisvasúti,"",
rapo,"Raposka",megállóhely,"",
rapp,"Rapp",megszűnt állomás (Felvidék/Szlovákia),"",48.276097:19.677194
rars,"Rárós",megszűnt megállóhely,"",
raro,"Ráróspuszta",megállóhely,"",
rast,"Rásztony",(Felvidék/Szlovákia),"Ráztočno",
ratk,"Rátka",megállóhely,"",
rato,"Rátót",állomás,"",
ravl,"Ravaszlyuk",megszűnt megállóhely,"",
rava,"Ravazd",megállóhely,"",47.530014:17.759616
rece,"Récse",(Felvidék/Szlovákia),"Bratislava-Rača",
recs,"Recsk-Parádfürdő",megszűnt állomás,"Parád",
redi,"Rédics",állomás,"",
regc,"Regőce",megszűnt állomás (Szerbia),"",45.987213:19.099646
rego,"Regöly",megállóhely,"",
rehe,"Réhely",megszűnt megállóhely,"",
reje,"Reje",megszűnt megállóhely,"",
remr,"Remerenció",megszűnt megállóhely,"",
reme,"Remete",megszűnt megállóhely,"",
rema,"",(Felvidék/Szlovákia),"",
rend,"Rendve",(Felvidék/Szlovákia),"Radava",
repa,"Répáspuszta",megállóhely,"",46.430267:17.847493
repc,"Répcelak",állomás,"",47.419018:17.009035
repm,"Répcemicske",megszűnt megállóhely (Ausztria),"Strebersdorf",
repu,"Répcesarud",megszűnt megállóhely (Ausztria),"Frankenau",
reps,"Répceszemere",megszűnt állomás,"",47.431979:16.966741
repv,"Répcevis",megszűnt állomás,"",
rest,"Restér",(Felvidék/Szlovákia),"Roštár",
rete,"Réte",(Felvidék/Szlovákia),"Reca",
retf,"Rétfalu-Siklósd",megállóhely (Ausztria),"Wiesen-Siegleß",
rets,"Rétság",megszűnt állomás,"",
rtsz,"Rétszilas",állomás,"",
rtsa,"Rétszilas alsó",megállóhely,"",
revb,"Révbér",megszűnt megállóhely,"",
revf,"Révfülöp",állomás,"Kővágóörs-Révfülöp",
revu,"",(Felvidék/Szlovákia),"",
ribe,"Ribény",(Felvidék/Szlovákia),"Rybany",
wric,"Ricse",megszűnt kisvasúti állomás,"",
rics,"Ricsó",(Felvidék/Szlovákia),"Dolný Hričov",
riga,"Rigács",megállóhely,"",47.060571:17.199418
rimb,"Rimabánya",(Felvidék/Szlovákia),"Rimavská Baňa",
rimr,"Rimabrézó",(Felvidék/Szlovákia),"Rimavské Brezovo",
rimf,"Rimafűrész",(Felvidék/Szlovákia),"Rimavská Píla",
rimk,"Rimakokova",állomás (Felvidék/Szlovákia),"Kokava nad Rimavicou",
rims,"Rimaszécs",(Felvidék/Szlovákia),"Rimavská Seč",
rimo,"Rimaszombat",(Felvidék/Szlovákia),"Rimavská Sobota",
rimz,"",(Felvidék/Szlovákia),"",
roho,"Rohonc",megszűnt állomás (Ausztria),"Rechnitz",47.281402:16.444248
wrob,"Rókabögyös",megszűnt kisvasúti megállóhely,"",
romf,"Rómaifürdő",megállóhely,"",47.575296:19.048486
roma,"Románd",megszűnt megállóhely,"",47.439372:17.793432
romh,"Romhány",megszűnt állomás,"",
wrsm,"Rosszmalom elágazás",megszűnt kisvasúti állomás,"",
wros,"Rostalló",kisvasúti állomás,"",
rotf,"Rőtfalva",megszűnt állomás (Ausztria),"Rőtfalva-Rendnek, Rattersdorf-Leibing",47.408907:16.507368
rovi,"",(Felvidék/Szlovákia),"",
rozs,"Rozsály",megállóhely,"",47.912931:22.782325
wrom,"Rózsamajor",megszűnt kisvasúti megállóhely,"",
wroz,"Rózsás",megszűnt kisvasúti megállóhely,"",
rozf,"Rozsfalva",(Felvidék/Szlovákia),"Rochovce",
rozn,"Rozsnyó",állomás (Felvidék/Szlovákia),"Berzétei vasgyár, Rožňava",48.635361:20.514162
rozr,"Rozsnyó régi",megállóhely (Felvidék/Szlovákia),"Rožňava predmestie",48.650843:20.521729
rozm,"Rozsnyó-Belváros",megállóhely (Felvidék/Szlovákia),"Rožňava mesto, Rozsnyó megálló",48.66011:20.519613
ruda,"Rudabánya",megszűnt állomás,"",48.369671:20.627716
rudt,"Rudabánya-Teher pu.",megszűnt állomás,"",
rudi,"Rudics",megszűnt megállóhely,"",46.134175:19.338503
rdin,"",(Felvidék/Szlovákia),"",
rudn,"Rudnaykert",megállóhely,"",47.717439:19.258174
rum_,"Rum",megszűnt állomás,"",
rumk,"Rum kastély",megszűnt megállóhely,"",
rust,"Ruszt-Szentmargitbánya",megszűnt állomás (Ausztria),"",
rutt,"Ruttka",(Felvidék/Szlovákia),"Vrútky",
wruz,"Ruzsa",megszűnt kisvasúti állomás,"",
rodo,"Rödöny",megállóhely (Ausztria),"Riedlingsdorf",47.339198:16.148684
rosz,"Röszke",állomás,"",
wsag,"Ságvári",megszűnt kisvasúti,"",
sjba,"Sajóbábony",teherpályaudvar,"",48.167252:20.723577
sjec,"Sajóecseg",állomás,"",
sjgo,"Sajógömör",(Felvidék/Szlovákia),"Gemer",
sjha,"Sajóháza",megállóhely (Felvidék/Szlovákia),"Nadabula",48.680935:20.520355
wsjk,"Sajókápolna",megszűnt kisvasúti,"",
sjka,"Sajókaza",megállóhely,"",
sjke,"Sajókeresztúr",megállóhely,"",
wsjl,"Sajólászlófalva",megszűnt kisvasúti,"",
sjle,"Sajólénártfalva",állomás (Felvidék/Szlovákia),"Lenartovce",48.302607:20.327199
sjme,"Sajómercse",megszűnt megállóhely,"",48.262437:20.415028
sjne,"Sajónémeti",megállóhely,"",48.270106:20.366971
sjre,"Sajórecske",(Felvidék/Szlovákia),"Riečka",
sjsp,"Sajószentpéter",állomás,"",
sjbv,"Sajószentpéter-BVK",teherpályaudvar,"",48.231463:20.683708
sjpp,"Sajószentpéter-Piactér",megállóhely,"",
sjso,"Sajószöged",megállóhely,"",47.942459:20.98925
sjti,"Sajótiba",(Felvidék/Szlovákia),"Bohúňovo",
salw,"Sal",(Szlovénia),"Šalovci",
sgta,"Salgótarján",megállóhely,"",
sgtk,"Salgótarján külső",állomás,"",
sgtc,"Salgótarján-Acélgyártelep",teherpályaudvar,"",
salk,"Salköveskút-Vassurány",megállóhely,"Salfa, Vassurány-Salfa, Vassurányi-rakodó",47.291117:16.703835
wsal,"Sallai telep",megszűnt kisvasúti,"",
samf,"Sámfalva",megszűnt megállóhely (Ausztria),"Hannersdorf",47.228663:16.379874
samo,"Sámod",megszűnt megállóhely,"",
wsam,"Sámsoni út",kisvasúti,"",
sanm,"Sándormajor",megszűnt,"",
sand,"Sándoros",megszűnt megállóhely,"",
wsnt,"Sánta tanya",megszűnt kisvasúti,"",
sant,"Sántos",megszűnt állomás,"",
sap_,"Sáp",állomás,"",
sara,"Sáránd",állomás,"",47.414271:21.625131
sarb,"Sárbogárd",állomás,"",
sare,"Sáregres",megállóhely,"",
sarh,"Sárhida",megállóhely,"",
sark,"Sarkad",állomás,"",
sarc,"Sarkadi Cukorgyár",megállóhely,"",
srkk,"Sarkadkeresztúr",megállóhely,"",46.823152:21.417025
sarf,"Sárkányfalva",megszűnt (Felvidék/Szlovákia),"",
srku,"Sárkeresztúr",megszűnt megállóhely,"",
wsrt,"Sárközi tanyák",megszűnt kisvasúti megállóhely,"",
sarl,"Sarlókajsza",(Felvidék/Szlovákia),"Mlynárce",
sarm,"Sármellék",megszűnt állomás,"",46.709922:17.168625
srod,"Sárosd",állomás,"",
srpa,"Sárospatak",állomás,"",
wsaa,"Sárospatak átrakó",megszűnt kisvasúti állomás,"",
wsak,"Sárospatak Kazinczy u.",megszűnt kisvasúti megállóhely,"",
srpe,"Sárpentele",megállóhely,"",47.16888:18.360416
srpi,"Sárpilis-Várdomb",megszűnt megállóhely,"",
srre,"Sárrétudvari",megállóhely,"",
sarr,"Sarród",megszűnt állomás,"",
srsa,"Sárszentágota",megszűnt megállóhely,"",
srse,"Sárszentmihály",állomás,"",47.170046:18.314937
srsm,"Sárszentmiklós",megszűnt megállóhely,"",
sart,"Sártó",megszűnt megállóhely,"",
srva,"Sárvár",állomás,"",47.25895:16.928933
sasa,"",megszűnt (Felvidék/Szlovákia),"",
sasd,"Sásd",állomás,"",
sash,"Sashalom",,"",
sask,"Saskőváralja",(Felvidék/Szlovákia),"Šášovské Podhradie",
saso,"Sásony",(Ausztria),"Winden am See",
wssr,"Sasrét",kisvasúti megállóhely,"",
wssm,"Sasrét mh.",kisvasúti megállóhely,"",
wssf,"Sasrét-Fűrésztelep",kisvasúti állomás,"",
sasv,"Sasvár",(Felvidék/Szlovákia),"Šaštín-Stráže",
sata,"Sáta",megszűnt megállóhely,"Sáta megálló",48.185435:20.382607
sato,"Sátoraljaújhely",állomás,"",
wsud,"Sátoraljaújhely dohánygyár",megszűnt kisvasúti megállóhely,"",
wsuk,"Sátoraljaújhely Kossuth tér",megszűnt kisvasúti állomás,"",
wsuz,"Sátoraljaújhely köztemető",megszűnt kisvasúti megállóhely,"",
wsut,"Sátoraljaújhely Torzsás",megszűnt kisvasúti állomás,"",
wsth,"Sátorhely",megszűnt kisvasúti állomás,"",
satb,"Sátorosbánya",megállóhely (Felvidék/Szlovákia),"Šiatorská Bukovinka",
sava,"Savanyúkút",állomás (Ausztria),"Bad Sauerbrunn",
savo,"Sávoly",állomás,"",
savt,"Sávoly-Tőzegtelep",megszűnt megállóhely,"",
wsce,"Scheieri elágazás",megszűnt kisvasúti,"",
scha,"Schäffer-kút",megállóhely,"",48.028567:19.044313
se__,"Sé",megszűnt,"",47.245915:16.558882
wsbk,"Sebők kert",megszűnt kisvasúti megállóhely,"",
sege,"Segesd",megszűnt megállóhely,"Máriakápolna-vásártér",46.339966:17.344337
sell,"Sellye",állomás,"",
scba,"Selmecbánya",állomás (Felvidék/Szlovákia),"Banská Štiavnica",
selm,"Selymes",megállóhely,"",
selp,"Selyp",állomás,"",
selb,"Selyp-Bányatelep",megszűnt teherpályaudvar,"",
serc,"Sérc",állomás (Ausztria),"Schützen am Gebirge",
serm,"Sérc megálló",megállóhely (Ausztria),"Schützen am Gebirge Bahnhst",
sere,"Seregélyes",megállóhely,"",
sers,"Seregélyes-Szőlőhegy",megállóhely,"",
sklo,"Sikló",(Románia/Erdély),"Siclău",46.500164:21.36356
wsik,"Sikló GV",megszűnt kisvasúti,"",
sikl,"Siklós",megszűnt állomás,"",
siks,"Siklósi szőlők",megszűnt megállóhely,"Siklósi szöllők",
simg,"Simongát",megszűnt állomás,"",
simo,"Simontornya",állomás,"",
simn,"Simony",(Felvidék/Szlovákia),"Partizánske zastávka",
siof,"Siófok",állomás,"",46.90758:18.053541
siot,"Siófok-Tisztviselőtelep",megszűnt megállóhely,"",
sioj,"Siójut",megállóhely,"Jut",46.880594:18.125397
siov,"Sióvölgy",megállóhely,"",46.911245:18.07699
sira,"Sirató",megállóhely,"",
siro,"Sirok",megszűnt megállóhely,"",
sitk,"Sitke",megszűnt állomás,"",47.235864:17.002351
sklp,"",(Felvidék/Szlovákia),"",
skaz,"",(Felvidék/Szlovákia),"",
sklk,"",(Felvidék/Szlovákia),"",
skse,"",(Felvidék/Szlovákia),"",
skan,"Skanzen",állomás,"",
skle,"",(Felvidék/Szlovákia),"",
slat,"Slatina",megszűnt állomás (Horvátország),"Podravska Slatina",
slja,"",(Felvidék/Szlovákia),"",
slvs,"",(Felvidék/Szlovákia),"",
sllu,"",(Felvidék/Szlovákia),"",
sofr,"Sofronya",állomás (Románia/Erdély),"Şofronea",
solt,"Solt",megszűnt állomás,"",46.801722:19.010962
sols,"Soltszentimre",megállóhely,"",
solv,"Soltvadkert",állomás,"",
wsol,"Soltvadkerti út",megszűnt kisvasúti megállóhely,"",
soly,"Sóly",megszűnt megállóhely,"",
solm,"Solymár",állomás,"",47.596361:18.949668
wsym,"Solymos major",megszűnt kisvasúti,"",
somn,"Som-Nagyberény",megállóhely,"",46.802834:18.14939
soml,"Somlóvásárhely",megállóhely,"",47.124388:17.368862
somo,"Somodi",megszűnt állomás (Felvidék/Szlovákia),"Drienovec",
somd,"Somodor",megállóhely,"",46.472422:17.836689
smas,"Somogyaszaló",megállóhely,"Somodor-Somogyaszaló",46.453718:17.840578
wsou,"Somogyaszalói út",megszűnt kisvasúti,"",
smjd,"Somogyjád",állomás,"",46.490691:17.694458
smjr,"Somogyjád régi",megszűnt állomás,"",
smme,"Somogymeggyes",állomás,"Kötcse-Csicsalpuszta",46.720445:17.920747
smim,"Somogyszentimre",megszűnt megállóhely,"",
wsop,"Somogyszentpál",kisvasúti,"",
wsof,"Somogyszentpál felső",kisvasúti,"",
wssi,"Somogyszil",megszűnt kisvasúti állomás,"",
wssa,"Somogyszil alsó",megszűnt kisvasúti megállóhely,"",
smso,"Somogyszob",állomás,"",
smta,"Somogytarnóca",megszűnt állomás,"",
smud,"Somogyudvarhely",megállóhely,"",46.16325:17.17948
smva,"Somogyvár",állomás,"",
smvi,"Somogyvisonta",megszűnt megállóhely,"Csokonyavisonta felső",
somr,"Somorja",megszűnt állomás (Felvidék/Szlovákia),"Šamorín",
smsk,"Somoskőújfalu",állomás,"Šomošova",
wspo,"Soponya",megszűnt kisvasúti állomás,"",
wspf,"Soponya felső",megszűnt kisvasúti állomás,"",
sopr,"Sopron",állomás,"",
sopd,"Sopron-Déli",megszűnt állomás,"",
spgy,"Sopron-Gyártelep",megszűnt megállóhely,"",
spmr,"Sopron-Marhapályaudvar",megszűnt teherpályaudvar,"",
spre,"Sopron-Rendező",teherpályaudvar,"",
spku,"Sopronkeresztúr",(Ausztria),"Deutschkreutz",
spkr,"Sopronkertes",állomás (Ausztria),"Baumgarten",
sopk,"Sopronkövesd",megállóhely,"",
spny,"Sopronnyék-Harácsony",állomás (Ausztria),"Neckenmarkt-Horitschon",
spma,"Sopronszentmárton",(Ausztria),"Markt St. Martin",
sork,"Sorkifalud",megállóhely,"Dömötöri",47.136853:16.719725
soro,"Soroksár",állomás,"",47.402313:19.123175
sorf,"Soroksár felső",,"",
sorh,"Soroksár, Hősök tere",,"",
buso,"Soroksári út",állomás,"Budapest-Soroksári út",47.45843:19.082534
wsrm,"Sorompóőrhely (Nagycenk)",kisvasúti szolgálati hely,"",
sosh,"Sóshalom",megszűnt megállóhely,"",
sosl,"Sósliget",(Felvidék/Szlovákia),"Slaná Lehota",
sste,"Sóstelep",megszűnt megállóhely,"",
ssto,"Sóstó",megállóhely,"Sóstógyógyfürdő",47.997097:21.729034
wsos,"Sóstógyógyfürdő",megszűnt kisvasúti állomás,"",
sshe,"Sóstóhegy",állomás,"",48.012295:21.74279
sosv,"Sósvertike",megszűnt megállóhely,"",
sovh,"Soványhát",megszűnt megállóhely,"",
stvo,"",(Felvidék/Szlovákia),"",
wsti,"Stimeczház",kisvasúti állomás,"",
stoz,"",(Felvidék/Szlovákia),"",
strt,"",(Felvidék/Szlovákia),"",
strl,"",(Felvidék/Szlovákia),"",
stre,"Strém",megszűnt állomás (Ausztria),"",
stub,"Stubnyafürdő",(Felvidék/Szlovákia),"Turčianske Teplice",
srln,"",,"",
sumo,"Sumony",állomás,"",
susa,"Susány",megszűnt (Felvidék/Szlovákia),"Sušany",
svrc,"",(Felvidék/Szlovákia),"",
syka,"",(Felvidék/Szlovákia),"",
suly,"Sülysáp",állomás,"Tápiósüly-Tápiósáp",47.451842:19.527139
sume,"Sümeg",állomás,"",
sumb,"Sümegi bazaltbánya",állomás,"",
sutt,"Süttő",állomás,"",
sutf,"Süttő felső",megállóhely,"Dunamócs",
wsuh,"Süttő-Hársfa",megszűnt kisvasúti,"",
szba,"Szabadbattyán",állomás,"",47.10552:18.38798
szeh,"Szabadegyháza",állomás,"Szolgaegyháza",
szfu,"Szabadifürdő",megállóhely,"Balatonszabadi",46.924388:18.099941
szso,"Szabadisóstó",állomás,"Balatonszabadi-Sóstó",46.934088:18.118532
szka,"Szabadka",állomás (Szerbia),"Subotica, &#1057;&#1091;&#1073;&#1086;&#1090;&#1080;&#1094;&#1072;",
szkg,"Szabadka gyártelep",megszűnt megállóhely (Szerbia),"Szabadkai műtrágyagyár",
szbt,"Szabadkai tanyák",megszűnt megállóhely,"",
wsau,"Szabadkai út",megszűnt kisvasúti megállóhely,"",
szki,"Szabadkígyós",megszűnt állomás,"Ókígyósi tanyák, Szabadkígyósi tanyák",
wska,"Szabadkígyós alsó",megszűnt kisvasúti megállóhely,"",
wski,"Szabadkígyós GV",megszűnt kisvasúti állomás,"Ókígyós",
szkt,"Szabadkikötő",megállóhely,"",47.444377:19.07162
szli,"Szabadságliget",megállóhely,"",47.626157:18.894181
wsab,"Szabadságrendező pu.",megszűnt kisvasúti állomás,"",
sztp,"Szabadságtelep",,"",
wsap,"Szabadságtelep GV",megszűnt kisvasúti,"",
wsat,"Szabadságtér",megszűnt kisvasúti,"Piactér",
szsa,"Szabadszállás",állomás,"",
szad,"Szada",megszűnt,"",
szaa,"Szada alsó",megszűnt,"",
szjk,"Szajki erdő",megszűnt megállóhely,"",47.058488:17.023413
szaj,"Szajol",állomás,"",
szsz,"Szák-Szend",megszűnt megállóhely,"",47.51685:18.187375
szho,"Szakály-Hőgyész",állomás,"",
szkm,"Szakmár",megszűnt megállóhely,"",
szkc,"Szakolca",állomás (Felvidék/Szlovákia),"Skalica na Slovensku",
szky,"Szakolykert",megszűnt megállóhely,"",
wsjf,"Szalajka-Fatelep",kisvasúti,"",
wsji,"Szalajka-Fátyolvízesés",kisvasúti állomás,"",
wsjh,"Szalajka-Halastó",kisvasúti állomás,"",
wsjz,"Szalajkaház",kisvasúti állomás,"",
wsjv,"Szalajkavölgy-Lovaspálya",kisvasúti állomás,"Szilvásvárad-Szalajkavölgy-Örömed",
szlt,"Szalatnak",megállóhely,"",
szlk,"Szalkszentmárton",megszűnt állomás,"",
szlm,"Szalmadpuszta",megszűnt megállóhely,"",
sloc,"Szalóc",megszűnt (Felvidék/Szlovákia),"",
szln,"Szalonna",állomás,"",
wsza,"Szank",megszűnt kisvasúti megállóhely,"",
wszt,"Szanki tanyák",megszűnt kisvasúti megállóhely,"",
szkh,"Szántód-Kőröshegy",állomás,"",46.862266:17.899552
szra,"Szany-Rábaszentandrás",állomás,"",47.460717:17.315176
wspa,"Szapárfalu",megszűnt kisvasúti,"",
wspk,"Szapárfalu középmajor",megszűnt kisvasúti,"",
szar,"Szár",megállóhely,"Szár alsó",47.485104:18.527632
szrr,"Szár régi",megszűnt megállóhely,"",
szrd,"Szárazd",megállóhely,"",
szrt,"Szárazrét",megállóhely,"",47.200949:18.381091
szrz,"Szárazvám",állomás (Ausztria),"Müllendorf",
szrf,"Szárföld",megállóhely,"",
wsah,"Szarkahegy",megszűnt kisvasúti megállóhely,"",
szak,"Szarkás",megszűnt megállóhely,"",
szrl,"Szárliget",állomás,"Szár",47.518346:18.495825
szrv,"Szarvas",állomás,"",
szrk,"Szarvaskő",megállóhely,"",47.988409:20.332589
szbe,"Szászberek",megállóhely,"Felsőszászberek, Felszőszentberek",
szva,"Szászvár",megállóhely,"Mázaszászvár alsó",
szti,"Szatina-Kishajmás",megállóhely,"",
szat,"Szatmárnémeti",állomás (Románia/Erdély),"",
szgo,"Szatmárnémeti-Gőzfűrész",megszűnt (Románia/Erdély),"",
szty,"Szatymaz",állomás,"",
szav,"Szava",megszűnt megállóhely,"",
szaz,"Százhalombatta",állomás,"",
szeb,"Szebény",megszűnt megállóhely,"",46.144827:18.585402
szct,"Széchenyi tér",megszűnt megállóhely,"",
wszc,"Széchenyihegy",kisvasúti állomás,"",47.494061:18.97692
szcs,"Szécsény",állomás,"",
sedm,"Szedmerőc",megszűnt (Felvidék/Szlovákia),"Sedmerovec",
szed,"Szedres",megszűnt megállóhely,"",
szeg,"Szeged",állomás,"",
wser,"Szeged Rudolf tér",megszűnt kisvasúti állomás,"",
wsea,"Szeged-átrakó",megszűnt kisvasúti állomás,"",
szgr,"Szeged-Rendező",megszűnt állomás,"",
szer,"Szeged-Rókus",állomás,"",
szet,"Szeged-Tisza",megszűnt állomás,"",
szga,"Szegedi halastó",megszűnt megállóhely,"Kettőshatár",
szgf,"Szegfű",megszűnt megállóhely,"",
szgh,"Szeghalom",állomás,"",47.01518:21.148097
szgi,"Szegi",,"",
szgv,"Szegvár",állomás,"",
szkf,"Székelyfalva-Búrszentgyörgy",(Felvidék/Szlovákia),"Sekule",
wszk,"Székes",megszűnt kisvasúti megállóhely,"",
szfh,"Székesfehérvár",állomás,"",47.183215:18.424574
szfr,"Székesfehérvár-Repülőtér",megállóhely,"",47.158913:18.406725
szkk,"Székkutas",állomás,"Vásárhelykutas",
wses,"Széksóstó",megszűnt kisvasúti állomás,"",
szks,"Szekszárd",állomás,"",
szkp,"Szekszárd-Palánk",megállóhely,"Palánk",
szto,"Széktó",megszűnt megállóhely,"",
szku,"Székudvar",megállóhely (Románia/Erdély),"Socodor",46.500828:21.432631
wsht,"Széleshát",megszűnt kisvasúti,"",
selk,"Széleskút",(Felvidék/Szlovákia),"Sološnica",
szlv,"Szelevény",megállóhely,"",
szlh,"Szellőhát",megállóhely,"",
szem,"Szemeretelep",megállóhely,"",47.444049:19.212756
senf,"Szénásfalu-Vihnyepeszerény",(Felvidék/Szlovákia),"Bzenica",
senc,"Szenc",(Felvidék/Szlovákia),"Senec",
snce,"Szencse",(Felvidék/Szlovákia),"Podhájska",
wsen,"Szendrei major",megszűnt kisvasúti megállóhely,"Szendrei",
sznd,"Szendrő",állomás,"",
sznf,"Szendrő felső",megállóhely,"Szendrő vásártér",
sznl,"Szendrőlád",megállóhely,"",
szen,"Szenice",(Felvidék/Szlovákia),"Senica",
stim,"Szent Imre tér",megállóhely,"",47.431238:19.067665
stiu,"Szent István utca",,"",
stiv,"Szent István-telep",megállóhely,"",47.629074:19.043178
szta,"Szenta",állomás,"",
wszn,"Szenta EV",kisvasúti állomás,"",
sznp,"Szentannapuszta",megállóhely,"",
stba,"Szentbalázs",megszűnt állomás,"",46.322855:17.891555
stde,"Szentdénes",megállóhely,"",
wsga,"Szentegát",megszűnt kisvasúti állomás,"",
sten,"Szentendre",állomás,"",47.660889:19.075433
stes,"Szentes",állomás,"",
stto,"Szentetornya",megállóhely,"Orosháza külső",
stga,"Szentgál",állomás,"",47.136534:17.707321
stgo,"Szentgotthárd",állomás,"",
stgr,"Szentgyörgy",(Felvidék/Szlovákia),"Svätý Jur",
wsiv,"Szentiván",megszűnt kisvasúti állomás,"Szentivánpuszta",
stja,"Szentjakabfalva",megszűnt (Felvidék/Szlovákia),"",
stki,"Szentkirály",megszűnt megállóhely,"",
stks,"Szentkirályszabadja",megszűnt állomás,"",47.043529:17.963367
stko,"Szentkozma",megszűnt megállóhely,"",47.231058:21.463808
stla,"Szentlászló",megszűnt állomás,"",
wsla,"Szentlászló GV",megszűnt kisvasúti állomás,"",
stle,"Szentléránt",megállóhely,"",47.121923:16.73374
stlo,"Szentlőrinc",állomás,"",
stma,"Szentmártonkáta",megállóhely,"",47.432206:19.679828
wsmp,"Szentmártonpuszta",kisvasúti megállóhely,"",
stmi,"Szentmihályfa",(Felvidék/Szlovákia),"Michal na Ostrove",
szmi,"Szentmihálytelek",megszűnt megállóhely,"",
szmh,"Szentmihálytelek GV",megszűnt kisvasúti megállóhely,"",
smih,"Szentmihályúr",(Felvidék/Szlovákia),"Michal nad Žitavou",
szps,"Szepes",megszűnt megállóhely,"",
szph,"Szepeshalom",megszűnt megállóhely,"",
szpr,"Szepesremete",(Felvidék/Szlovákia),"Mníšek nad Hnilcom",
szpf,"Szepezdfürdő",megállóhely,"",
wshh,"Széphalom-Hosszúláz",megszűnt kisvasúti megállóhely,"",
wszj,"Szépjuhászné",kisvasúti állomás,"Ságvári-liget",47.528376:18.955311
szpi,"Szepsi",állomás (Felvidék/Szlovákia),"Moldava nad Bodvou",
szpa,"Szepsi alsó",megszűnt (Felvidék/Szlovákia),"Moldava nad Bodvou mesto",
szpv,"Szépvölgyi út",megállóhely,"",47.527273:19.040131
szrc,"Szerecseny",megállóhely,"",
szre,"Szered",állomás (Felvidék/Szlovákia),"Sereď",
sznc,"Szerencs",állomás,"",
szrp,"Szerep",megállóhely,"",
sest,"Szeszta",(Felvidék/Szlovákia),"Cestice",
szic,"Szigetcsép",,"",
szhl,"Szigethalom",,"",
szha,"Szigethalom alsó",,"",
szhf,"Szigethalom felső",megszűnt megállóhely,"",
szhr,"Szigethalom őrház",megszűnt megállóhely,"",
szhu,"Szigethalom Újtelep",megszűnt megállóhely,"",
szmj,"Szigetmajor",megszűnt megállóhely,"",
sziu,"Szigetszentmárton-Szigetújfalu",,"",
szim,"Szigetszentmiklós",,"",
szia,"Szigetszentmiklós alsó",,"",
szsm,"Szigetszentmiklós-Gyártelep",,"",
szsx,"Szigetszentmiklós-Gyártelep IX. kapu",megszűnt megállóhely,"",
szig,"Szigetvár",állomás,"",
szih,"Szihalom",megállóhely,"",
szkn,"Szikáncs",megszűnt megállóhely,"",
skls,"Sziklaszoros",(Felvidék/Szlovákia),"Skalité",
szkr,"Szikra",megállóhely,"",
szko,"Szikszó",állomás,"",
szkv,"Szikszó-Vásártér",megállóhely,"",
szil,"Szil-Sopronnémeti",állomás,"",
szid,"Szilád-Alsózélle",(Felvidék/Szlovákia),"Siladice",
wszl,"Szilas",megszűnt kisvasúti megállóhely,"",
szll,"Szilasliget",,"",
wsil,"Szilfás",megszűnt kisvasúti állomás,"",
szis,"Szilsárkány",megszűnt megállóhely,"",
szvv,"Szilvásvárad",állomás,"",48.113548:20.379019
szvs,"Szilvásvárad-Szalajkavölgy",megállóhely,"",48.095608:20.382505
sinb,"Szinóbánya",(Felvidék/Szlovákia),"Cinobaňa",
sinv,"Szinóbányai vasgyár",(Felvidék/Szlovákia),"Maša",
szir,"Szirmabesenyő",megállóhely,"",
silf,"Szliácsfürdő",(Felvidék/Szlovákia),"Sliáč kúpele",
szob,"Szob",állomás,"",47.821225:18.862068
szoa,"Szob alsó",megállóhely,"",47.818126:18.869066
swob,"Szob kisvasút",kisvasúti,"",
szod,"Sződ-Sződliget",megállóhely,"",47.727951:19.154856
szkd,"Szőkéd",megállóhely,"",
szoh,"Szőkehalom",megszűnt megállóhely,"",
szok,"Szokolya",állomás,"",
wskm,"Szokolya-Mányoki",kisvasúti megállóhely,"Szokolya alsó",
wskf,"Szokolya-Riezner",kisvasúti megállóhely,"Szokolya felső",
wslt,"Szőllősi tanyák",megszűnt kisvasúti megállóhely,"",
wslp,"Szőllőspuszta",megszűnt kisvasúti állomás,"",
szol,"Szolnok",állomás,"",47.179633:20.176141
szal,"Szolnok-Alcsi",megszűnt megállóhely,"",
szor,"Szolnok-Rendező",teherpályaudvar,"",
szot,"Szolnok-Teher",teherpályaudvar,"",47.18384:20.169813
szlp,"Szőlősnyaraló",megállóhely,"Szőlőstelep",47.450703:19.559399
szlr,"Szőlősnyaraló régi",megszűnt megállóhely,"",47.451688:19.554467
szbh,"Szombathely",állomás,"",47.23737:16.632595
szbr,"Szombathely-Rendező",teherpályaudvar,"",
szbp,"Szombathely-Repülőtér",megszűnt megállóhely,"",47.267733:16.618771
szbs,"Szombathely-Szőlős",megállóhely,"",47.206466:16.641753
smoh,"Szomolnokhuta",megszűnt kisvasúti (Felvidék/Szlovákia),"Smolnícka Huta",
smof,"Szomolnokhutai fürész",megszűnt kisvasúti (Felvidék/Szlovákia),"Smolnícka Huta píla",
szml,"Szomorlovászi",(Felvidék/Szlovákia),"Koniarovce",
szny,"Szőny",megállóhely,"",
szde,"Szőny-Déli",megállóhely,"",47.73687:18.143197
wsoh,"Szophomok",megszűnt kisvasúti megállóhely,"",
szrg,"Szőreg",állomás,"",
sguj,"Szőreg-Újtelep",megszűnt megállóhely,"",
szgm,"Szorgalmatos",megállóhely,"",
szth,"Sztahanov",megszűnt megállóhely,"",
sztr,"Sztaravoda-patak",megállóhely,"",
szuh,"Szuhakálló-Múcsony",megszűnt állomás,"",48.281964:20.656409
szul,"Szulimán",megszűnt megállóhely,"",
szuk,"Szulok",megszűnt állomás,"",
wsuv,"Szunyogvár",megszűnt kisvasúti,"",
szur,"Szurdokpüspöki",állomás,"",
szug,"Szügy",megállóhely,"",
wsog,"Szögihegy",megszűnt kisvasúti megállóhely,"",
szrn,"Szörény",megszűnt megállóhely,"",
wshm,"Sörház major",megszűnt kisvasúti megállóhely,"",
sovk,"Sövénykút",megszűnt megállóhely,"",
slaz,"",(Felvidék/Szlovákia),"",
tab_,"Tab",állomás,"",46.734074:18.041099
tabd,"Tabdi",megállóhely,"",
tabo,"Táborfalva",állomás,"Örkénytábor-Csurgai major",47.098803:19.479039
tabf,"Táborfalva-Fenyves rakodó",teherpályaudvar,"",
wtac,"Tác",megszűnt kisvasúti állomás,"",
tajo,"Tajó",állomás,"",
wtak,"Taksalápa",megszűnt állomás,"",
taks,"Taksony",állomás,"",47.320548:19.076661
takd,"Taksony Dunahíd",megszűnt megállóhely,"",
ttha,"Taktaharkány",állomás,"",
wtaf,"Taktaharkány felső",megszűnt kisvasúti,"",
ttsz,"Taktaszada",megállóhely,"",
wtal,"Talián út",megszűnt kisvasúti,"",
tlya,"Tállya",állomás,"",
tama,"Tamási",megszűnt állomás,"Tamási-Majsamiklósvár",46.628212:18.289974
tamp,"Tamásipuszta",megállóhely,"",47.636151:21.802297
tana,"Tanakajd",megszűnt megállóhely,"",
alxy,"Táncsicstelep",megszűnt megállóhely,"Alexy-telep",
tany,"Tany-Nemesócsa",(Felvidék/Szlovákia),"Zemianska Olča",
tpgy,"Tápiógyörgye",állomás,"",47.324965:19.949359
tpmj,"Tápiómajor",megszűnt megállóhely,"",
tpsc,"Tápiószecső",állomás,"",47.441336:19.620543
tpsl,"Tápiószele",állomás,"",47.34625:19.873666
tpsm,"Tápiószentmárton",megállóhely,"",47.373678:19.797366
tapa,"Táplánszentkereszt alsó",megszűnt,"",
tapf,"Táplánszentkereszt felső",megszűnt,"",
tapo,"Tapolca",állomás,"",
taps,"Tápszentmiklós",megszűnt megállóhely,"",
tar_,"Tar",állomás,"",
tarc,"Tarcal",állomás,"",
tarf,"Tarcsafürdő",(Ausztria),"Bad Tatzmannsdorf",
taru,"Tárcsás utca",megszűnt megállóhely,"",
tard,"Tardosi kőbányák",megállóhely,"",48.008805:20.326968
trdk,"Tardoskedd",(Felvidék/Szlovákia),"Tvrdošovce",
wtah,"Tarhos",megszűnt kisvasúti megállóhely,"",
trut,"Tarjáni út",megszűnt megállóhely,"",46.403905:20.295483
tarj,"Tarjánpuszta",állomás,"",47.504745:17.788806
tark,"Tárkány-Csép",megállóhely,"",47.59472:18.041102
tnma,"Tarnaszentmária",megszűnt megállóhely,"",
tnmi,"Tarnaszentmiklós",állomás,"",
wtrk,"Tarnaszentmiklós község",megszűnt kisvasúti,"",
wtrp,"Tarnaszentmiklós Pélyi út",megszűnt kisvasúti,"",
wtru,"Tarnaszentmiklós Újtelep",megszűnt kisvasúti,"",
tnor,"Tarnaörs",megszűnt megállóhely,"",
tarn,"Tárnok",állomás,"",47.365795:18.874378
wtas,"Táska",kisvasúti állomás,"",
wtae,"Táskai elágazás",kisvasúti,"",
tasz,"Taszár",állomás,"",46.363528:17.893722
tat_,"Tát",megállóhely,"",
tata,"Tata",állomás,"",
tatb,"Tatabánya",állomás,"Bánhida, Tatabánya alsó",47.58559:18.393157
tatk,"Tatárkő",megszűnt megállóhely,"",
wtat,"Tatársánci iskola",megszűnt kisvasúti megállóhely,"",
tatv,"Tatárvár",megállóhely,"Buzsák",
tede,"Tedej",megállóhely,"Tedely",
tegl,"Téglás",megállóhely,"",
tekl,"Teklafalu",megszűnt megállóhely,"",
telb,"Telbisztanya",megszűnt megállóhely,"",46.434368:20.946423
tele,"Telekgerendás",állomás,"Gerendás",
telg,"",(Felvidék/Szlovákia),"",
telp,"",(Felvidék/Szlovákia),"",
wtem,"Templom",megszűnt kisvasúti,"",
teng,"Tengelic",megállóhely,"",
teny,"Tenyőszállás",megszűnt megállóhely,"",47.15003:20.340733
tere,"Terecsenypuszta",megszűnt megállóhely,"",
trhe,"Terehegy",megszűnt megállóhely,"",
terz,"Terézhalom",megszűnt megállóhely,"",
terl,"Terlény-Modor",megszűnt (Felvidék/Szlovákia),"",
tese,"Teszér",megszűnt (Felvidék/Szlovákia),"Hontianske Tesáre",
ngte,"Tétényliget",megállóhely,"Nagytétény-Érdliget",47.384523:18.952738
tibo,"Tiborszállás",állomás,"",
timr,"Tímár utca",megállóhely,"",47.53355:19.044225
timo,"Timót utca",,"",
tsal,"Tiszaalpár",állomás,"Alpár",46.818595:19.982657
tsaa,"Tiszaalpár alsó",megállóhely,"Tiszaújfalu",46.790798:19.951498
tsaf,"Tiszaalpár felső",megállóhely,"Alpár felső",46.836168:19.976955
wtbe,"Tiszabercel",megszűnt kisvasúti,"",
wtbv,"Tiszabercel-Vásártér",megszűnt kisvasúti,"",
tsbz,"Tiszabezdéd",megállóhely,"",48.37131:22.144919
wtbs,"Tiszabő szigori",megszűnt kisvasúti,"",
wtbt,"Tiszabő terményraktár",megszűnt kisvasúti állomás,"",
tscs,"Tiszacsege",megszűnt állomás,"",
wtcs,"Tiszacsermely",megszűnt kisvasúti állomás,"",
tsda,"Tiszadada",megszűnt állomás,"",
tsdo,"Tiszadob",megszűnt állomás,"",
tses,"Tiszaeszlár",megállóhely,"",
tsfu,"Tiszafüred",állomás,"",47.627948:20.755804
tsfg,"Tiszafüred-Gyártelep",megállóhely,"",
tsfo,"Tiszaföldvár",állomás,"",
tshi,"Tiszahídfő",megszűnt megállóhely,"",
tiut,"Tiszai út",megszűnt megállóhely,"Darvasszék",
tsja,"Tiszajenő alsó",megállóhely,"Pusztajenő",47.017044:20.134536
tsje,"Tiszajenő-Vezseny",megállóhely,"Vezseny",47.036507:20.142425
wtje,"Tiszajenő-Vezseny KCK",megszűnt kisvasúti állomás,"",
wtka,"Tiszakarád",megszűnt kisvasúti állomás,"",
wtkh,"Tiszakarád határszél",megszűnt kisvasúti megállóhely,"",
wtkm,"Tiszakarád megálló",megszűnt kisvasúti megállóhely,"",
tske,"Tiszakécske",állomás,"Újkécske",46.937469:20.081965
tslu,"Tiszalúc",,"",
tslk,"Tiszalök",állomás,"",
tslo,"Tiszalöki Vízművek",megszűnt megállóhely,"",
tsnf,"Tiszanagyfalu",megszűnt megállóhely,"",
tspa,"Tiszapalkonya-Erőmű",állomás,"",47.909836:21.048881
tssa,"Tiszasas",állomás,"",
wtse,"Tiszaszabályozó Társulat",megszűnt kisvasúti megállóhely,"",
tsse,"Tiszaszentimre",állomás,"",
tsma,"Tiszaszentmárton",megszűnt megállóhely,"",
tsso,"Tiszaszőlős",állomás,"",
wtte,"Tiszatelek",megszűnt kisvasúti állomás,"Telektanya",
tstn,"Tiszatenyő",állomás,"Pusztatenyő",
tsug,"Tiszaug",állomás,"",
tsur,"Tiszaug régi",megszűnt állomás,"",46.867306:20.042345
tsut,"Tiszaug-Tiszahídfő",megállóhely,"",
tsuj,"Tiszaújváros",állomás,"Leninváros",47.926054:21.030033
tsvk,"Tiszavárkony",állomás,"",47.059397:20.142824
tsvv,"Tiszavasvári",állomás,"Büdszentmihály",
tiso,"Tiszolc",(Felvidék/Szlovákia),"Tisovec",
tism,"Tiszolc megálló",(Felvidék/Szlovákia),"Tisovec mesto",
tsvi,"Tisztavíz",megállóhely,"",47.644516:21.823807
wtiz,"Tizesbérc",megszűnt megállóhely,"",
tlma,"",(Felvidék/Szlovákia),"",
toco,"Tócóvölgy",állomás,"",47.529201:21.588679
tofa,"Tófalu",megszűnt megállóhely,"",
tofe,"Tófej",megállóhely,"",
tofu,"Tófürdő",megállóhely,"",47.576091:21.458621
toha,"Tóhát",megszűnt megállóhely,"",47.618652:20.844191
toka,"Tokaj",állomás,"",
tokd,"Tokod",állomás,"",
tokf,"Tokod felső",megszűnt megállóhely,"Tokod megálló",
tokr,"Tokorcs forgalmi kitérő",szolgálati hely,"",47.274909:17.0804
tolm,"Tolmács",megszűnt állomás,"",
tnmo,"Tolna-Mözs",állomás,"",
tnnm,"Tolnanémedi",állomás,"",
tmpa,"Tompa",megállóhely,"",
tmpu,"Tompapuszta",megállóhely,"",46.321012:20.966976
topo,"Toponár",állomás,"",46.395717:17.839871
wtpu,"Toponári út",megszűnt kisvasúti,"",
wtop,"Toppancshíd",kisvasúti,"",
wtoc,"Tordac",megszűnt kisvasúti megállóhely,"",
torm,"Tormásliget",megállóhely,"Tormáspuszta",
tora,"Torna",állomás (Felvidék/Szlovákia),"Turňa nad Bodvou",
trnj,"Tornalja",(Felvidék/Szlovákia),"Tornaľa",
torn,"Tornanádaska",állomás,"",
torc,"Tornóc",(Felvidék/Szlovákia),"Trnovec nad Váhom",
wtnu,"Tornyai út",megszűnt kisvasúti,"",
tors,"Tornyos",(Felvidék/Szlovákia),"Trenčianska Turná",
trne,"Tornyosnémeti",megszűnt,"",
torp,"Tornyospálca",állomás,"",
toru,"Torontál utca",,"Atra",
toro,"Torony",megszűnt,"",47.242478:16.529249
tose,"Tőserdő",megállóhely,"",46.851171:19.980014
tosn,"Tósnyárasd",(Felvidék/Szlovákia),"Topoľnica",
toso,"Tósokberénd",megszűnt megállóhely,"",
tosz,"Tószeg",állomás,"",47.098076:20.138383
wtot,"Tóth tanya",megszűnt kisvasúti,"",
totk,"Tótkomlós",állomás,"",46.408728:20.726902
wttt,"Tótkomlós Templom tér",megszűnt kisvasúti állomás,"",
wttv,"Tótkomlós vásártér",megszűnt kisvasúti megállóhely,"",
wttk,"Tótkomlósi tanyák",megszűnt kisvasúti állomás,"",
totm,"Tótmegyer",(Felvidék/Szlovákia),"Palárikovo",
tova,"Tóvároskert",megállóhely,"",
wtoz,"Tőzeggyár",megszűnt kisvasúti állomás,"",
tren,"Trencsén",(Felvidék/Szlovákia),"Trenčín",
trav,"Trencsén-Alsóváros",(Felvidék/Szlovákia),"Trenčín predmestie",
trev,"Trencsén-Vághidas",(Felvidék/Szlovákia),"Zlatovce",
trku,"Trencsénkutas",(Felvidék/Szlovákia),"Kotešová",
trko,"Trencsénteplic község",kisvasúti (Felvidék/Szlovákia),"Trenčianske Teplice zastávka",
trtm,"Trencsénteplic megálló",kisvasúti (Felvidék/Szlovákia),"Trenčianske Teplice sídlisko",
trfu,"Trencsénteplic-fürdő",kisvasúti (Felvidék/Szlovákia),"Trenčianske Teplice",
trtz,"",kisvasúti (Felvidék/Szlovákia),"",
tret,"",(Felvidék/Szlovákia),"",
trip,"Tripolisz",megszűnt megállóhely,"NIKE mh.",
trnh,"",(Felvidék/Szlovákia),"",
trnp,"",(Felvidék/Szlovákia),"",
tmat,"Tunyogmatolcs",állomás,"Tunyog",47.960602:22.442632
tmal,"Tunyogmatolcs alsó",megállóhely,"Matolcs",47.966092:22.464809
tura,"Tura",állomás,"",47.6264:19.597194
turb,"Turbék-Töröksír",megszűnt megállóhely,"",
turg,"Turgony",megszűnt megállóhely,"",
wtur,"Turgony GV",megszűnt kisvasúti,"",
wtuh,"Turistaház",megszűnt kisvasúti megállóhely,"",
turk,"Túrkeve",megszűnt állomás,"",47.10958:20.730827
trdi,"Turócdivék",(Felvidék/Szlovákia),"Diviaky",
trma,"Turócszentmárton",(Felvidék/Szlovákia),"Martin",
tuzs,"Tuzsér",állomás,"",48.342411:22.131642
turj,"Türje",megállóhely,"",46.995161:17.094586
wtus,"Tüskepuszta",megszűnt kisvasúti megállóhely,"",
tksp,"Tüskeszentpéter",megszűnt megállóhely,"",46.970081:17.077225
tkva,"Tüskevár",állomás,"",47.12871:17.33154
wtuk,"Tyúkfarm",megszűnt kisvasúti,"",
wtuz,"Tüzép",megszűnt kisvasúti megállóhely,"",
toko,"Tököl",,"",
tolg,"Tölgyes",,"Szentjakab",
wtrl,"Törtel",megszűnt kisvasúti állomás,"",
wtrm,"Törtel megálló",megszűnt kisvasúti megállóhely,"",
wtrv,"Törvényszék",megszűnt kisvasúti,"",
trba,"Törökbálint",megállóhely,"",47.449975:18.909622
wtoe,"Törökér",megszűnt kisvasúti megállóhely,"",
wtfi,"Törökfái",megszűnt kisvasúti állomás,"",
wtff,"Törökfái-Felső",megszűnt kisvasúti,"",
torr,"Törökőr rendező pu.",megszűnt állomás,"",
trsz,"Törökszentmiklós",állomás,"",
wtor,"Törösznek",kisvasúti állomás,"",
wtov,"Töviskes",megszűnt kisvasúti,"",
udvd,"Udvard",(Felvidék/Szlovákia),"Dvory nad Žitavou",
udvh,"Udvarhely",teherpályaudvar,"",
ugod,"Ugod",megszűnt állomás,"",47.332559:17.600191
ugye,"Ugyer",megszűnt megállóhely,"",
uban,"Újbánya",(Felvidék/Szlovákia),"Nová Baňa",
ujbo,"Újbög",állomás,"",46.987064:20.111084
wudi,"Újdiósgyőr Vasgyár",megszűnt kisvasúti,"",
wudo,"Újdombrád",megszűnt kisvasúti megállóhely,"Karkhalom",
ujfe,"Újfehértó",állomás,"",
ufel,"Újfeled",(Felvidék/Szlovákia),"Jesenské zastávka",
wuha,"Újharangod",megszűnt kisvasúti,"",
wuir,"Újireg",megszűnt kisvasúti,"",
wuip,"Újistálló puszta",megszűnt kisvasúti,"",
ujkn,"Újkenéz",megállóhely,"",
ujkr,"Újkér",megállóhely,"Keresztény",
wuki,"Újkígyós",megszűnt kisvasúti állomás,"",
wuko,"Újkótaj",megszűnt kisvasúti,"",
ulac,"Újlacska",(Felvidék/Szlovákia),"Malé Zálužie",
ujmj,"Újmajor",megszűnt (Felvidék/Szlovákia),"",
wuos,"Újmassa-Őskohó",kisvasúti megállóhely,"",
ujme,"Újmezőhegyes",megszűnt megállóhely,"",46.310894:20.792484
ujpa,"Újpalota",megszűnt (Románia/Erdély),"",
ujpe,"Újpest",megállóhely,"",47.558794:19.079624
ujst,"Újsolt",megszűnt állomás,"",46.789486:19.004885
ujsa,"Újszász",állomás,"",47.28578:20.066746
ujsg,"Újszeged",állomás,"",
ujsm,"Újszentmargita",megszűnt állomás,"Szentmargitapuszta",
ujso,"Újszőreg",megszűnt megállóhely,"",
wute,"Újtelep (Iregszemcse)",megszűnt kisvasúti,"",
wutp,"Újtelep (Szeghalom)",megszűnt kisvasúti megállóhely,"",
wutk,"Újtelep-kitérő",megszűnt kisvasúti,"",
ujti,"Újtikos",megszűnt megállóhely,"Tikostanya",
ujud,"Újudvar",állomás,"",
ujva,"Újváros",megállóhely,"",
ujvm,"Újváros mh.",megszűnt megállóhely,"",
ujve,"Újvenyim",megállóhely,"",
wuvi,"Újvilág",megszűnt kisvasúti,"",
ukk_,"Ukk",állomás,"",47.040591:17.196233
ungh,"Unghváry pince",megszűnt megállóhely,"",
ungt,"Unghvárytelep",megszűnt megállóhely,"",
urih,"Úrihegy",megállóhely,"Kunszentmiklósi út",46.918022:19.620508
wurr,"Urrét elágazás",megszűnt kisvasúti,"",
uszo,"Úszor",állomás (Felvidék/Szlovákia),"Kvetoslavov, Somorja-Úszor",
uzov,"Uzovicstelep",megszűnt megállóhely,"",
uzsa,"Uzsa",állomás,"",
uzsb,"Uzsabánya",teherpályaudvar,"",
uzba,"Uzsabánya alsó",megállóhely,"Uzsapuszta",
ullo,"Üllő",állomás,"",47.390753:19.350892
urge,"Ürgehát",megszűnt megállóhely,"",47.118811:20.368422
urmo,"Ürmöshát",megállóhely,"",47.267322:21.091449
buur,"Üröm",megállóhely,"Budapest-Üröm",47.580833:19.001796
uzbe,"Üzbég",(Felvidék/Szlovákia),"Lužianky",
vac_,"Vác",állomás,"",47.782632:19.132862
vaca,"Vác-Alsóváros",megállóhely,"",47.773231:19.149483
vach,"Váchartyán",megállóhely,"",47.725311:19.249507
vack,"Váckisújfalu",megszűnt megállóhely,"Váckisfalu",47.70512:19.340255
vaco,"Vacok",(Felvidék/Szlovákia),"Bacúch",
vacr,"Vácrátót",állomás,"",47.732777:19.217916
wvdm,"Vadasmajor",megszűnt kisvasúti állomás,"",
wvad,"Vadaspark",kisvasúti megállóhely,"",47.522773:18.949225
vadl,"Vadászlak",megszűnt megállóhely,"",
vadn,"Vadna",megállóhely,"",
vgap,"Vágapátfalva",(Felvidék/Szlovákia),"Opatová nad Váhom",
vgbe,"Vágbeszterce",(Felvidék/Szlovákia),"Považská Bystrica",
vgde,"Vágdebrőd",megszűnt (Felvidék/Szlovákia),"",
vgeh,"Vágegyháza-Alsózáros",(Felvidék/Szlovákia),"Kostolná-Záriečie",
vgfa,"Vágfarkasd",(Felvidék/Szlovákia),"Vlčany",
vghe,"Vághéve-Vágváralja",(Felvidék/Szlovákia),"Považská Teplá",
vgka,"Vágkeresztúr-Apaj",(Felvidék/Szlovákia),"Križovany nad Dudváhom",
vgme,"Vágmedence",(Felvidék/Szlovákia),"Madunice",
wvag,"Vágó",megszűnt kisvasúti megállóhely,"",
vago,"Vágóhíd",állomás,"",
vgse,"Vágsellye",állomás (Felvidék/Szlovákia),"Šaľa",
vguh,"Vágújhely",(Felvidék/Szlovákia),"Nové Mesto nad Váhom",
vaja,"Vaja-Rohod",állomás,"",48.006548:22.163491
vajh,"Vajhát",megszűnt megállóhely,"",
vajy,"Vajháti kendergyár",megszűnt,"",
vajk,"Vajk",(Felvidék/Szlovákia),"Lúčnica nad Žitavou",
vajs,"Vajszló",megszűnt állomás,"",
vajt,"Vajta",állomás,"",
valc,"Valkóc",(Felvidék/Szlovákia),"Volkovce",
vall,"Valla",állomás (Ausztria),"Wallern im Burgenland",
vals,"Valtasúr",(Felvidék/Szlovákia),"Šúrovce",
vamc,"Vámoscsalád",megállóhely,"",
vmde,"Vámosderecske-Sopronújlak",állomás (Ausztria),"Draßmarkt-Neutal",
vmfa,"Vámosfalva",(Felvidék/Szlovákia),"Mýtna",
vamg,"Vámosgyörk",állomás,"",47.686028:19.927639
wvmo,"Vámosoroszi",megszűnt kisvasúti megállóhely,"",
wvmf,"Vámosoroszi felső",megszűnt kisvasúti állomás,"",
vamp,"Vámospércs",állomás,"",
vara,"Váralja",megállóhely,"",
vard,"Várda",megállóhely,"",
vrfo,"Várfok",megszűnt megállóhely,"",
vart,"Vargatanya",megszűnt megállóhely,"",
vrgf,"Várgedefürdő",(Felvidék/Szlovákia),"Hodejov",
wvah,"Várhegy",megszűnt kisvasúti megállóhely,"",
varh,"Várhegyalja",megállóhely,"Neszmélyi Téglagyár",
wvas,"Várkonyi szőlők",megszűnt kisvasúti megállóhely,"",
varf,"Városföld",állomás,"",
wvak,"Városi kert",megszűnt kisvasúti megállóhely,"",
vrpk,"Városi park",megállóhely,"",
vlig,"Városligeti elágazás",szolgálati hely,"",
varl,"Városlőd",megállóhely,"",47.144461:17.653054
vark,"Városlőd-Kislőd",állomás,"",47.133216:17.629555
varp,"Várpalota",állomás,"",47.194687:18.148922
valj,"Vasalja",megszűnt megállóhely,"",
wvhr,"Vásárhelyi határ",megszűnt kisvasúti megállóhely,"",
vasd,"Vásárosdombó",,"",
vasm,"Vásárosmiske",megszűnt állomás,"",47.205449:17.054254
vasn,"Vásárosnamény",állomás,"",48.126557:22.305796
vask,"Vásárosnamény külső",megállóhely,"Perényitanya",48.082119:22.25127
vasa,"Vasas-Hird",megszűnt megállóhely,"",46.118789:18.336971
vase,"Vasegerszeg",megállóhely,"",
vash,"Vashosszúfalu",állomás,"",47.117779:17.056707
vkut,"Vaskút",megszűnt állomás,"",
vass,"Vasszécseny",megszűnt állomás,"Vasszécsény",
vsmu,"Vasútmúzeum",megállóhely,"",47.544224:19.09859
vspa,"Vasúttörténeti park",megszűnt megállóhely,"",47.541909:19.09558
vasv,"Vasvár",állomás,"",47.057376:16.810035
vsvo,"Vasvörösvár",megszűnt (Ausztria),"Rotenturm (an der Pinka",47.258172:16.262645
vasz,"Vaszar",állomás,"",
vecs,"Vecsés",állomás,"",47.408454:19.256438
veck,"Vecsés-Kertekalja",megállóhely,"",47.403301:19.272838
vede,"Védeny",megállóhely (Ausztria),"Weiden am See",
vcel,"",(Felvidék/Szlovákia),"",
wveg,"Végardó",megszűnt kisvasúti megállóhely,"",
vege,"Végegyháza",megállóhely,"",46.385056:20.879238
vega,"Végegyháza alsó",megállóhely,"Nesze",46.367069:20.866858
vegt,"Véghtelep",megszűnt megállóhely,"",
vegl,"Végles-Nagyszalatna",(Felvidék/Szlovákia),"Vígľaš",
vejk,"Vejke",megszűnt megállóhely,"",
vele,"Velence",megállóhely,"",47.226883:18.663787
velf,"Velencefürdő",megállóhely,"Kisvelence",47.218629:18.648168
veme,"Véménd",megszűnt állomás,"",46.154127:18.607549
vep_,"Vép",állomás,"",47.236014:16.726991
vepe,"Veperd-Kabold",megállóhely (Ausztria),"Weppersdorf-Kobersdorf",
vreb,"Vereb",megszűnt megállóhely,"",47.315261:18.582486
vebl,"Verebély",(Felvidék/Szlovákia),"Vráble",
verk,"Vereknye",megszűnt megállóhely (Felvidék/Szlovákia),"",
wver,"Veres major",megszűnt kisvasúti,"",
vere,"Veresegyház",állomás,"",47.649125:19.288778
vrko,"Vereskő",(Felvidék/Szlovákia),"Červená Skala",
vern,"",(Felvidék/Szlovákia),"",
vero,"Verőce",állomás,"Nógrádverőce",
verp,"Verpelét",megszűnt állomás,"",
vera,"Vértesacsa",megszűnt állomás,"",47.366936:18.580372
verb,"Vértesboglár",megszűnt állomás,"",47.409761:18.562586
vert,"Vértesszőlős",megállóhely,"Vértesszőlős-Remeteség",
verv,"Vérvölgy",megszűnt megállóhely,"",
vszk,"Veszkény",megállóhely,"",
vszp,"Veszprém",állomás,"Veszprém külső pu., Veszprém-Jutas",47.118979:17.911302
vszh,"Veszprém honvédlaktanya",megszűnt megállóhely,"",47.087914:17.916768
vszr,"Veszprém régi",megszűnt állomás,"",47.094932:17.917476
vszv,"Veszprémvarsány",állomás,"",47.443352:17.81862
vszt,"Vésztő",állomás,"",46.939108:21.263222
wvtk,"Vésztő külső",megszűnt kisvasúti megállóhely,"",
wvtp,"Vésztő piactér",megszűnt kisvasúti megállóhely,"",
wvtv,"Vésztő vásártér",megszűnt kisvasúti állomás,"",
wvtt,"Vésztői tanyák",megszűnt kisvasúti megállóhely,"",
vesv,"Veszverés",megállóhely (Felvidék/Szlovákia),"Gemerská Poloma",48.709041:20.47752
vete,"Vetés",megszűnt (Románia/Erdély),"",
vllu,"",(Felvidék/Szlovákia),"",
vlkv,"",(Felvidék/Szlovákia),"Priekopa",
vlks,"",megszűnt megállóhely (Felvidék/Szlovákia),"",
ngku,"Veľký Krtíš",teherpályaudvar (Felvidék/Szlovákia),"",
vica,"Vica",megállóhely,"",
vics,"Vicsápapáti",(Felvidék/Szlovákia),"Výčapy-Opatovce",
vicz,"Vicziántelep",megállóhely,"Nyíresszőlőtelep",47.67592:19.286117
vidi,"",megszűnt (Felvidék/Szlovákia),"",
vigt,"Vígtelke",(Felvidék/Szlovákia),"Vidová",
vilh,"Világoshegy",megállóhely,"",
vilp,"Világospuszta",megszűnt megállóhely,"",
wvlp,"Világospuszta GV",megszűnt kisvasúti megállóhely,"",
vill,"Villány",állomás,"",45.877332:18.451527
vile,"Villány-Elágazás",szolgálati hely,"",
vilk,"Villánykövesd",megállóhely,"",
wvim,"Vilmamajor",megszűnt kisvasúti állomás,"",
vilm,"Vilmaszállás",megállóhely,"",
wvit,"Vilmatanya",megszűnt kisvasúti megállóhely,"",
wvlm,"Vilmos major",megszűnt kisvasúti állomás,"",
wvle,"Vilmosmajor elágazás",megszűnt kisvasúti megállóhely,"",
vilo,"Vilonya-Királyszentistván",megszűnt megállóhely,"",
wvil,"Vily-Vitány",megszűnt kisvasúti megállóhely,"",
wvip,"Vilyi puszta",megszűnt kisvasúti megállóhely,"",
vina,"Vinár",állomás,"",
viny,"Vinye",megállóhely,"Sándormajor, Vinyesándormajor",47.360184:17.819669
wvrv,"Virágvölgy",kisvasúti,"Előre",47.505856:18.958848
virn,"Virányos",megállóhely,"",
viso,"Visontai Kombinát",teherpályaudvar,"",
wvis,"Viss",megszűnt kisvasúti megállóhely,"",
vite,"Vitézipuszta",megszűnt megállóhely,"",
vitk,"Vitka",megállóhely,"",48.095483:22.308155
vitn,"Vitnyéd-Csermajor",megállóhely,"",
wvif,"Vizesfás",megszűnt kisvasúti állomás,"",
vizg,"Vizesgyán",megszűnt (Románia/Erdély),"",
vret,"Vizesrét",(Felvidék/Szlovákia),"Mokrá Lúka",
wviz,"Vizi",megszűnt kisvasúti állomás,"",
vizi,"Vízimalom",megállóhely,"",
wvij,"Vízjárás",megszűnt kisvasúti megállóhely,"Farkas-Beretvás tanya",
wvzl,"Vizslak",megszűnt kisvasúti,"",
vizs,"Vizslás",megszűnt megállóhely,"",
vizv,"Vízvár",állomás,"",46.101341:17.239453
olpf,"",megállóhely (Felvidék/Szlovákia),"",
vlar,"Vlárapass",,"Vlárský průsmyk",
voka,"Vokány",megállóhely,"Trinitás, Siklós-Vokány",
vony,"Vonyarcvashegy",állomás,"",
vulk,"Vulkapordány",állomás (Ausztria),"Wulkaprodersdorf",
vulm,"Vulkapordány megálló",megállóhely (Ausztria),"Wulkaprodersdorf Bahnhsteige, Vulka-Pordány-Alsófalu",
vono,"Vönöck",megszűnt állomás,"",47.304834:17.166063
vors,"Vörs",megállóhely,"",
wvsc,"Vöröscsillag tsz. elágazás",megszűnt kisvasúti,"",
wvor,"Vörösegyháza",megszűnt kisvasúti állomás,"",
vorh,"Vöröshíd",megszűnt (Felvidék/Szlovákia),"",
voma,"Vörösmart",megszűnt megállóhely (Horvátország),"",
zado,"Zádor",megszűnt megállóhely,"",
zgya,"Zagyvapálfalva",állomás,"",
zgyr,"Zagyvarékas",megállóhely,"",47.244287:20.097388
zaho,"Záhony",állomás,"",48.401857:22.183769
zaha,"Záhony-Átrakó",teherpályaudvar,"",48.38598:22.16561
zahr,"Záhony-Rendező",teherpályaudvar,"",48.391927:22.172758
wzaj,"Zajda-Doboskert",megszűnt megállóhely,"",
zajt,"Zajta",állomás,"",47.902983:22.795321
zsak,"Zákány",megállóhely,"",46.255015:16.938032
wzai,"Zákány iskola",megszűnt kisvasúti állomás,"",
wzak,"Zákányszék",megszűnt kisvasúti állomás,"",
wzaa,"Zákányszék alsó",megszűnt kisvasúti állomás,"",
zlap,"Zalaapáti",megszűnt állomás,"",46.727886:17.11045
zala,"Zalaba",(Felvidék/Szlovákia),"Zalaba",
zlbe,"Zalabér",megszűnt megállóhely,"",46.976513:17.014473
zlbb,"Zalabér-Batyk",állomás,"",46.983052:17.040587
zlbs,"Zalabesenyő",megszűnt megállóhely,"",
zlca,"Zalacsány",megszűnt állomás,"",46.808255:17.103722
zlcs,"Zalacséb-Salomvár",megállóhely,"",46.857851:16.661297
zleg,"Zalaegerszeg",állomás,"",46.833284:16.848312
zlek,"Zalaegerszeg külső kórház",megszűnt megállóhely,"",
zlol,"Zalaegerszeg-Ola",megállóhely,"",
zleo,"Zalaegerszeg-Ola régi",megszűnt megállóhely,"Zalaegerszeg Ola-külváros",46.849438:16.827984
zlgm,"Zalagyömörő",megállóhely,"",
zlhp,"Zalahaláp",megszűnt teherpályaudvar,"",
zlhh,"Zalaháshágy-Szőce",megszűnt megállóhely,"",46.90936:16.602729
zlho,"Zalahosszúfalu",megszűnt megállóhely,"",
zlko,"Zalakomár",állomás,"Komárváros",
zllo,"Zalalövő",állomás,"",46.84558:16.576559
zlpk,"Zalapataka",megszűnt megállóhely,"",46.848043:16.601697
zlpa,"Zalapatakalja",megállóhely,"",46.84549:16.60412
zlgr,"Zalaszentgrót",megszűnt állomás,"",46.951182:17.081762
zlgy,"Zalaszentgyörgy",megállóhely,"",46.871881:16.711462
zliv,"Zalaszentiván",állomás,"",46.887537:16.908725
zlik,"Zalaszentiván-Kisfaludpuszta",megszűnt,"",
zlja,"Zalaszentjakab",állomás,"",
zlsa,"Zalaszentlászló",megszűnt állomás,"",46.887312:17.103674
zlsl,"Zalaszentlőrinc",megállóhely,"",46.914093:16.877325
zlmp,"Zalaszentmihály-Pacsa",állomás,"",
zlud,"Zalaudvarnok",megszűnt megállóhely,"",46.906754:17.101889
zlve,"Zalavég",megszűnt megállóhely,"",47.006252:17.017504
zama,"Zamárdi",megállóhely,"",46.879937:17.94485
zamf,"Zamárdi felső",állomás,"",46.886028:17.96974
zank,"Zánka-Köveskál",állomás,"",
zanf,"Zánkafürdő",megállóhely,"Zánka-Úttörőváros, Zánkafüred",
wzar,"Zarany puszta",megszűnt kisvasúti,"",
zari,"",(Felvidék/Szlovákia),"",
zavz,"",(Felvidék/Szlovákia),"",
zavo,"",(Felvidék/Szlovákia),"",
zbeh,"",(Felvidék/Szlovákia),"",
zbeo,"",(Felvidék/Szlovákia),"",
zbyn,"",(Felvidék/Szlovákia),"",
zebe,"Zebegény",megállóhely,"",47.800748:18.909109
zele,"Zelemér",megállóhely,"",
wzem,"Zemanek",kisvasúti,"",
wzma,"Zemplénagárd",megszűnt kisvasúti állomás,"",
zich,"Zichyújfalu",állomás,"",
zili,"Ziliz",megszűnt megállóhely,"",
zirc,"Zirc",állomás,"",47.266699:17.877878
zlat,"Zlatnó",(Felvidék/Szlovákia),"Zlatno",
znio,"Znióváralja",(Felvidék/Szlovákia),"Kláštor pod Znievom",
zoho,"Zohor",állomás (Felvidék/Szlovákia),"Zohor",
zolm,"Zólyom megálló",(Felvidék/Szlovákia),"Zvolen mesto",
zoly,"Zólyom régi",megszűnt állomás (Felvidék/Szlovákia),"Zvolen nákladná stanica",
zobr,"Zólyombrézó",(Felvidék/Szlovákia),"Podbrezová",
zolb,"Zólyombúcs-Osztroluka",(Felvidék/Szlovákia),"Budča",
zolv,"Zólyomi vasgyár",megszűnt (Felvidék/Szlovákia),"",
zolk,"Zólyomkecskés",(Felvidék/Szlovákia),"Kozelník",
zoll,"Zólyomlipcse",(Felvidék/Szlovákia),"Slovenská Ľupča",
zomb,"Zombor",állomás (Szerbia),"Sombor, &#1057;&#1086;&#1084;&#1073;&#1086;&#1088;",45.7855556:19.1133333
zrin,"Zrínyitelep",megállóhely,"",
zarn,"Zsarnóca",(Felvidék/Szlovákia),"Žarnovica",
zarh,"Zsarnóca-Alsóhámor",(Felvidék/Szlovákia),"Dolné Hámre",
zseb,"Zsebes",(Felvidék/Szlovákia),"Šebastovce",
zsed,"Zsédeny mh.",megszűnt megállóhely,"",
zsee,"Zsédeny-Rózsamajor",megszűnt állomás,"",
zsel,"Zseliz",(Felvidék/Szlovákia),"Želiezovce",
zsig,"Zsigárd",(Felvidék/Szlovákia),"Žihárec",
zsif,"Zsigárd felső",megállóhely (Felvidék/Szlovákia),"Žihárec zastávka",
zsit,"Zsitvafödémes",állomás (Felvidék/Szlovákia),"Uľany nad Žitavou",
ztma,"Zsitvamártonfalva",(Felvidék/Szlovákia),"Martinová",
ztuf,"Zsitvaújfalu",(Felvidék/Szlovákia),"Nová Ves nad Žitavou",
zsof,"Zsófialiget",,"",
zsol,"Zsolna",állomás (Felvidék/Szlovákia),"Žilina",
zolt,"Zsolnai téglagyár",(Felvidék/Szlovákia),"Žilina zariečie",
zslr,"Zsolnay-rakodó",megszűnt megálló-rakodóhely,"",
zsuj,"Zsujta",megállóhely,"",
buzu,"Zugló",megállóhely,"Rákosváros, Budapest-Zugló",47.511963:19.100423
zura,"Zurány",állomás (Ausztria),"Zurndorf",
zvol,"Zvolen osobná stanica",állomás (Felvidék/Szlovákia),"",
zvob,"",(Felvidék/Szlovákia),"",
zwar,"",,"",
zdha,"Zöldhalom",megszűnt állomás,"",
wzoe,"Zöldmajori elágazás",megszűnt kisvasúti állomás,"",
